{
"type": "FeatureCollection",
"features": [
{ "type": "Feature", "properties": { "ADDRESS": "Алексин, ул. Тульская, д. 129", "ORIGINAL_LAT": 54.510239070154419, "ORIGINAL_LNG": 37.1140755, "LABEL": "Тульская улица 129, Алексин, Россия, 301360", "COUNTRY": "Россия", "ADMIN3": "Тульская область", "CITY": "Алексин", "POSTALCODE": "301360", "LAT": 54.51028, "LNG": 37.11396, "ACCESS_LAT": 54.51, "ACCESS_LNG": 37.11377, "RESULT_TYPE": "houseNumber", "HOUSE_NUMBER_TYPE": "PA", "QUERY_SCORE": 1.0, "CITY_SCORE": 1.0, "STREET_SCORE": 1.0, "HOUSE_NUMBER_SCORE": 1.0, "distances": 9.0 }, "geometry": { "type": "LineString", "coordinates": [ [ 37.114075499999949, 54.510239070154419 ], [ 37.11396, 54.51028 ] ] } },
{ "type": "Feature", "properties": { "ADDRESS": "Ангарск, ул. 40 лет Октября, д. 119", "ORIGINAL_LAT": 52.523416071720511, "ORIGINAL_LNG": 103.879311, "LABEL": "улица 40 лет Октября 119, Ангарск, Россия, 665821", "COUNTRY": "Россия", "ADMIN3": "Иркутская область", "CITY": "Ангарск", "POSTALCODE": "665821", "LAT": 52.52344, "LNG": 103.87933, "ACCESS_LAT": 52.52371, "ACCESS_LNG": 103.87915, "RESULT_TYPE": "houseNumber", "HOUSE_NUMBER_TYPE": "PA", "QUERY_SCORE": 1.0, "CITY_SCORE": 1.0, "STREET_SCORE": 1.0, "HOUSE_NUMBER_SCORE": 1.0, "distances": 3.0 }, "geometry": { "type": "LineString", "coordinates": [ [ 103.879310999999845, 52.523416071720511 ], [ 103.87933, 52.52344 ] ] } },
{ "type": "Feature", "properties": { "ADDRESS": "Архангельск, проспект Обводный канал, д. 9, корп. 3", "ORIGINAL_LAT": 64.536292, "ORIGINAL_LNG": 40.558863, "LABEL": "проспект Обводный канал 9 корп 3, Архангельск, Россия, 163002", "COUNTRY": "Россия", "ADMIN3": "Архангельская область", "CITY": "Архангельск", "POSTALCODE": "163002", "LAT": 64.5364, "LNG": 40.55891, "ACCESS_LAT": 64.53645, "ACCESS_LNG": 40.55845, "RESULT_TYPE": "houseNumber", "HOUSE_NUMBER_TYPE": "PA", "QUERY_SCORE": 1.0, "CITY_SCORE": 1.0, "STREET_SCORE": 1.0, "HOUSE_NUMBER_SCORE": 1.0, "distances": 12.0 }, "geometry": { "type": "LineString", "coordinates": [ [ 40.558863, 64.536292 ], [ 40.55891, 64.5364 ] ] } },
{ "type": "Feature", "properties": { "ADDRESS": "Баксан, ул. Карачаева, д. 2Б", "ORIGINAL_LAT": 43.6768608, "ORIGINAL_LNG": 43.5373535, "LABEL": "улица Карачаева 2б, Баксан, Россия", "COUNTRY": "Россия", "ADMIN3": "Кабардино-Балкарская Республика", "CITY": "Баксан", "POSTALCODE": null, "LAT": 43.67697, "LNG": 43.53747, "ACCESS_LAT": 43.6771, "ACCESS_LNG": 43.53742, "RESULT_TYPE": "houseNumber", "HOUSE_NUMBER_TYPE": "interpolated", "QUERY_SCORE": 0.95, "CITY_SCORE": 1.0, "STREET_SCORE": 1.0, "HOUSE_NUMBER_SCORE": 1.0, "distances": 15.0 }, "geometry": { "type": "LineString", "coordinates": [ [ 43.5373535, 43.6768608 ], [ 43.53747, 43.67697 ] ] } },
{ "type": "Feature", "properties": { "ADDRESS": "Балашиха, ул. Ситникова, д. 4", "ORIGINAL_LAT": 55.789183068943366, "ORIGINAL_LNG": 37.880518499999887, "LABEL": "улица Ситникова 4, Балашиха, Россия, 143900", "COUNTRY": "Россия", "ADMIN3": "Московская область", "CITY": "Балашиха", "POSTALCODE": "143900", "LAT": 55.78926, "LNG": 37.88034, "ACCESS_LAT": 55.78929, "ACCESS_LNG": 37.88076, "RESULT_TYPE": "houseNumber", "HOUSE_NUMBER_TYPE": "PA", "QUERY_SCORE": 1.0, "CITY_SCORE": 1.0, "STREET_SCORE": 1.0, "HOUSE_NUMBER_SCORE": 1.0, "distances": 14.0 }, "geometry": { "type": "LineString", "coordinates": [ [ 37.880518499999887, 55.789183068943366 ], [ 37.88034, 55.78926 ] ] } },
{ "type": "Feature", "properties": { "ADDRESS": "Балашиха, мкр. Дзержинского, д. 46", "ORIGINAL_LAT": 55.77681106897122, "ORIGINAL_LNG": 37.8984035, "LABEL": "микрорайон Дзержинского 46, Балашиха, Россия, 143914", "COUNTRY": "Россия", "ADMIN3": "Московская область", "CITY": "Балашиха", "POSTALCODE": "143914", "LAT": 55.77684, "LNG": 37.89836, "ACCESS_LAT": 55.77667, "ACCESS_LNG": 37.89815, "RESULT_TYPE": "houseNumber", "HOUSE_NUMBER_TYPE": "PA", "QUERY_SCORE": 0.88, "CITY_SCORE": 1.0, "STREET_SCORE": 0.9, "HOUSE_NUMBER_SCORE": 1.0, "distances": 4.0 }, "geometry": { "type": "LineString", "coordinates": [ [ 37.898403500000022, 55.77681106897122 ], [ 37.89836, 55.77684 ] ] } },
{ "type": "Feature", "properties": { "ADDRESS": "Балашиха, ул. Колхозная, д. 12, корп. 2", "ORIGINAL_LAT": 55.743993568976258, "ORIGINAL_LNG": 38.020404, "LABEL": "Колхозная улица 12 корп 2, Балашиха, Россия, 143987", "COUNTRY": "Россия", "ADMIN3": "Московская область", "CITY": "Балашиха", "POSTALCODE": "143987", "LAT": 55.7441, "LNG": 38.02036, "ACCESS_LAT": 55.74412, "ACCESS_LNG": 38.02036, "RESULT_TYPE": "houseNumber", "HOUSE_NUMBER_TYPE": "PA", "QUERY_SCORE": 1.0, "CITY_SCORE": 1.0, "STREET_SCORE": 1.0, "HOUSE_NUMBER_SCORE": 1.0, "distances": 12.0 }, "geometry": { "type": "LineString", "coordinates": [ [ 38.020404, 55.743993568976258 ], [ 38.02036, 55.7441 ] ] } },
{ "type": "Feature", "properties": { "ADDRESS": "Балашиха, ул. Советская, д. 15а", "ORIGINAL_LAT": 55.756655068978993, "ORIGINAL_LNG": 38.082145, "LABEL": "Советская улица 15А, Балашиха, Россия, 143921", "COUNTRY": "Россия", "ADMIN3": "Московская область", "CITY": "Балашиха", "POSTALCODE": "143921", "LAT": 55.75668, "LNG": 38.08215, "ACCESS_LAT": 55.7564, "ACCESS_LNG": 38.08216, "RESULT_TYPE": "houseNumber", "HOUSE_NUMBER_TYPE": "PA", "QUERY_SCORE": 1.0, "CITY_SCORE": 1.0, "STREET_SCORE": 1.0, "HOUSE_NUMBER_SCORE": 1.0, "distances": 3.0 }, "geometry": { "type": "LineString", "coordinates": [ [ 38.082145, 55.756655068978993 ], [ 38.08215, 55.75668 ] ] } },
{ "type": "Feature", "properties": { "ADDRESS": "Балашиха, ул. Жилгородок, д. 7а", "ORIGINAL_LAT": 55.750758, "ORIGINAL_LNG": 37.988783, "LABEL": "улица Жилгородок 7А, Балашиха, Россия, 143989", "COUNTRY": "Россия", "ADMIN3": "Московская область", "CITY": "Балашиха", "POSTALCODE": "143989", "LAT": 55.75078, "LNG": 37.98877, "ACCESS_LAT": 55.75033, "ACCESS_LNG": 37.98864, "RESULT_TYPE": "houseNumber", "HOUSE_NUMBER_TYPE": "PA", "QUERY_SCORE": 1.0, "CITY_SCORE": 1.0, "STREET_SCORE": 1.0, "HOUSE_NUMBER_SCORE": 1.0, "distances": 3.0 }, "geometry": { "type": "LineString", "coordinates": [ [ 37.988783, 55.750758 ], [ 37.98877, 55.75078 ] ] } },
{ "type": "Feature", "properties": { "ADDRESS": "Балашиха, ул. Кожедуба, д. 10", "ORIGINAL_LAT": 55.82527928, "ORIGINAL_LNG": 37.949401, "LABEL": "улица Кожедуба 10, Балашиха, Россия, 143900", "COUNTRY": "Россия", "ADMIN3": "Московская область", "CITY": "Балашиха", "POSTALCODE": "143900", "LAT": 55.82528, "LNG": 37.9494, "ACCESS_LAT": 55.8251, "ACCESS_LNG": 37.94934, "RESULT_TYPE": "houseNumber", "HOUSE_NUMBER_TYPE": "PA", "QUERY_SCORE": 1.0, "CITY_SCORE": 1.0, "STREET_SCORE": 1.0, "HOUSE_NUMBER_SCORE": 1.0, "distances": 0.0 }, "geometry": { "type": "LineString", "coordinates": [ [ 37.949401, 55.82527928 ], [ 37.9494, 55.82528 ] ] } },
{ "type": "Feature", "properties": { "ADDRESS": "Балашиха, проспект Ленина, д. 7\/1", "ORIGINAL_LAT": 55.79779178, "ORIGINAL_LNG": 37.9309045, "LABEL": "проспект Ленина 7\/1, Балашиха, Россия, 143900", "COUNTRY": "Россия", "ADMIN3": "Московская область", "CITY": "Балашиха", "POSTALCODE": "143900", "LAT": 55.7978, "LNG": 37.93092, "ACCESS_LAT": 55.79779, "ACCESS_LNG": 37.9312, "RESULT_TYPE": "houseNumber", "HOUSE_NUMBER_TYPE": "PA", "QUERY_SCORE": 1.0, "CITY_SCORE": 1.0, "STREET_SCORE": 1.0, "HOUSE_NUMBER_SCORE": 1.0, "distances": 1.0 }, "geometry": { "type": "LineString", "coordinates": [ [ 37.9309045, 55.79779178 ], [ 37.93092, 55.7978 ] ] } },
{ "type": "Feature", "properties": { "ADDRESS": "Боброво, ЖК Восточное Бутово, ул. Лесная, д. 20 к.1", "ORIGINAL_LAT": 55.533552069179521, "ORIGINAL_LNG": 37.6189555, "LABEL": "Лесная улица 20 корп 1, Ленинский район, Россия, 142718", "COUNTRY": "Россия", "ADMIN3": "Московская область", "CITY": "Ленинский район", "POSTALCODE": "142718", "LAT": 55.53336, "LNG": 37.61894, "ACCESS_LAT": 55.53334, "ACCESS_LNG": 37.61917, "RESULT_TYPE": "houseNumber", "HOUSE_NUMBER_TYPE": "PA", "QUERY_SCORE": 0.54, "CITY_SCORE": null, "STREET_SCORE": 1.0, "HOUSE_NUMBER_SCORE": 1.0, "distances": 21.0 }, "geometry": { "type": "LineString", "coordinates": [ [ 37.6189555, 55.533552069179521 ], [ 37.61894, 55.53336 ] ] } },
{ "type": "Feature", "properties": { "ADDRESS": "Брянск, Московский проспект, д. 140", "ORIGINAL_LAT": 53.208094, "ORIGINAL_LNG": 34.4585449, "LABEL": "Московский проспект 140, Брянск, Россия, 241020", "COUNTRY": "Россия", "ADMIN3": "Брянская область", "CITY": "Брянск", "POSTALCODE": "241020", "LAT": 53.20817, "LNG": 34.45847, "ACCESS_LAT": 53.20825, "ACCESS_LNG": 34.45815, "RESULT_TYPE": "houseNumber", "HOUSE_NUMBER_TYPE": "PA", "QUERY_SCORE": 1.0, "CITY_SCORE": 1.0, "STREET_SCORE": 1.0, "HOUSE_NUMBER_SCORE": 1.0, "distances": 10.0 }, "geometry": { "type": "LineString", "coordinates": [ [ 34.4585449, 53.208094 ], [ 34.45847, 53.20817 ] ] } },
{ "type": "Feature", "properties": { "ADDRESS": "Видное, ул. Березовая, д. 9", "ORIGINAL_LAT": 55.541585569170451, "ORIGINAL_LNG": 37.722334, "LABEL": "Берёзовая улица 9, Ленинский район, Россия, 142700", "COUNTRY": "Россия", "ADMIN3": "Московская область", "CITY": "Ленинский район", "POSTALCODE": "142700", "LAT": 55.54165, "LNG": 37.72347, "ACCESS_LAT": 55.54165, "ACCESS_LNG": 37.7232, "RESULT_TYPE": "houseNumber", "HOUSE_NUMBER_TYPE": "PA", "QUERY_SCORE": 1.0, "CITY_SCORE": null, "STREET_SCORE": 1.0, "HOUSE_NUMBER_SCORE": 1.0, "distances": 72.0 }, "geometry": { "type": "LineString", "coordinates": [ [ 37.722334, 55.541585569170451 ], [ 37.72347, 55.54165 ] ] } },
{ "type": "Feature", "properties": { "ADDRESS": "Волгодонск, ул. Ленина, д. 100", "ORIGINAL_LAT": 47.5115173, "ORIGINAL_LNG": 42.161826, "LABEL": "улица Ленина 100, Волгодонск, Россия, 347360", "COUNTRY": "Россия", "ADMIN3": "Ростовская область", "CITY": "Волгодонск", "POSTALCODE": "347360", "LAT": 47.51157, "LNG": 42.16164, "ACCESS_LAT": 47.51166, "ACCESS_LNG": 42.16177, "RESULT_TYPE": "houseNumber", "HOUSE_NUMBER_TYPE": "PA", "QUERY_SCORE": 1.0, "CITY_SCORE": 1.0, "STREET_SCORE": 1.0, "HOUSE_NUMBER_SCORE": 1.0, "distances": 15.0 }, "geometry": { "type": "LineString", "coordinates": [ [ 42.161826, 47.5115173 ], [ 42.16164, 47.51157 ] ] } },
{ "type": "Feature", "properties": { "ADDRESS": "Волгодонск, ул. Энтузиастов, д. 32А", "ORIGINAL_LAT": 47.521690113856913, "ORIGINAL_LNG": 42.197600818317433, "LABEL": "улица Энтузиастов 32а, Волгодонск, Россия, 347360", "COUNTRY": "Россия", "ADMIN3": "Ростовская область", "CITY": "Волгодонск", "POSTALCODE": "347360", "LAT": 47.5217, "LNG": 42.19745, "ACCESS_LAT": 47.52174, "ACCESS_LNG": 42.19726, "RESULT_TYPE": "houseNumber", "HOUSE_NUMBER_TYPE": "interpolated", "QUERY_SCORE": 0.96, "CITY_SCORE": 1.0, "STREET_SCORE": 1.0, "HOUSE_NUMBER_SCORE": 1.0, "distances": 11.0 }, "geometry": { "type": "LineString", "coordinates": [ [ 42.197600818317433, 47.521690113856913 ], [ 42.19745, 47.5217 ] ] } },
{ "type": "Feature", "properties": { "ADDRESS": "Воскресенск, ул. Победы, д. 14А", "ORIGINAL_LAT": 55.324719069414733, "ORIGINAL_LNG": 38.6797225, "LABEL": "улица Победы 14а, Воскресенский район, Россия, 140200", "COUNTRY": "Россия", "ADMIN3": "Московская область", "CITY": "Воскресенский район", "POSTALCODE": "140200", "LAT": 55.32368, "LNG": 38.67974, "ACCESS_LAT": 55.32382, "ACCESS_LNG": 38.67974, "RESULT_TYPE": "houseNumber", "HOUSE_NUMBER_TYPE": "interpolated", "QUERY_SCORE": 0.96, "CITY_SCORE": null, "STREET_SCORE": 1.0, "HOUSE_NUMBER_SCORE": 1.0, "distances": 116.0 }, "geometry": { "type": "LineString", "coordinates": [ [ 38.6797225, 55.324719069414733 ], [ 38.67974, 55.32368 ] ] } },
{ "type": "Feature", "properties": { "ADDRESS": "Вязьма, ул. Ленина, д. 38", "ORIGINAL_LAT": 55.21577, "ORIGINAL_LNG": 34.304231, "LABEL": "улица Ленина 38, Вяземский район, Россия", "COUNTRY": "Россия", "ADMIN3": "Смоленская область", "CITY": "Вяземский район", "POSTALCODE": null, "LAT": 55.21526, "LNG": 34.30413, "ACCESS_LAT": 55.21541, "ACCESS_LNG": 34.30383, "RESULT_TYPE": "houseNumber", "HOUSE_NUMBER_TYPE": "PA", "QUERY_SCORE": 1.0, "CITY_SCORE": null, "STREET_SCORE": 1.0, "HOUSE_NUMBER_SCORE": 1.0, "distances": 57.0 }, "geometry": { "type": "LineString", "coordinates": [ [ 34.304231, 55.21577 ], [ 34.30413, 55.21526 ] ] } },
{ "type": "Feature", "properties": { "ADDRESS": "Дзержинский, ул. Угрешская, д. 24", "ORIGINAL_LAT": 55.632113569105648, "ORIGINAL_LNG": 37.8584015, "LABEL": "Угрешская улица 24, Дзержинский, Россия, 140090", "COUNTRY": "Россия", "ADMIN3": "Московская область", "CITY": "Дзержинский", "POSTALCODE": "140090", "LAT": 55.63213, "LNG": 37.85838, "ACCESS_LAT": 55.63224, "ACCESS_LNG": 37.8584, "RESULT_TYPE": "houseNumber", "HOUSE_NUMBER_TYPE": "PA", "QUERY_SCORE": 1.0, "CITY_SCORE": 1.0, "STREET_SCORE": 1.0, "HOUSE_NUMBER_SCORE": 1.0, "distances": 2.0 }, "geometry": { "type": "LineString", "coordinates": [ [ 37.8584015, 55.632113569105648 ], [ 37.85838, 55.63213 ] ] } },
{ "type": "Feature", "properties": { "ADDRESS": "Дмитров, ул. Пионерская, д. 2", "ORIGINAL_LAT": 56.342161384523081, "ORIGINAL_LNG": 37.535684262565518, "LABEL": "Пионерская улица 2, Дмитровский район, Россия, 141802", "COUNTRY": "Россия", "ADMIN3": "Московская область", "CITY": "Дмитровский район", "POSTALCODE": "141802", "LAT": 56.34195, "LNG": 37.53563, "ACCESS_LAT": 56.34193, "ACCESS_LNG": 37.53541, "RESULT_TYPE": "houseNumber", "HOUSE_NUMBER_TYPE": "PA", "QUERY_SCORE": 1.0, "CITY_SCORE": null, "STREET_SCORE": 1.0, "HOUSE_NUMBER_SCORE": 1.0, "distances": 24.0 }, "geometry": { "type": "LineString", "coordinates": [ [ 37.535684262565518, 56.342161384523081 ], [ 37.53563, 56.34195 ] ] } },
{ "type": "Feature", "properties": { "ADDRESS": "Долгопрудный, ул. Дирижабельная, д. 11", "ORIGINAL_LAT": 55.937845, "ORIGINAL_LNG": 37.510029, "LABEL": "Дирижабельная улица 11, Долгопрудный, Россия, 141707", "COUNTRY": "Россия", "ADMIN3": "Московская область", "CITY": "Долгопрудный", "POSTALCODE": "141707", "LAT": 55.93785, "LNG": 37.51002, "ACCESS_LAT": 55.9376, "ACCESS_LNG": 37.50969, "RESULT_TYPE": "houseNumber", "HOUSE_NUMBER_TYPE": "PA", "QUERY_SCORE": 1.0, "CITY_SCORE": 1.0, "STREET_SCORE": 1.0, "HOUSE_NUMBER_SCORE": 1.0, "distances": 1.0 }, "geometry": { "type": "LineString", "coordinates": [ [ 37.510029, 55.937845 ], [ 37.51002, 55.93785 ] ] } },
{ "type": "Feature", "properties": { "ADDRESS": "Домодедово, ул. Курыжова, д. 21", "ORIGINAL_LAT": 55.397914569335867, "ORIGINAL_LNG": 37.772873, "LABEL": "улица Курыжова 21, Домодедово, Россия, 142000", "COUNTRY": "Россия", "ADMIN3": "Московская область", "CITY": "Домодедово", "POSTALCODE": "142000", "LAT": 55.39773, "LNG": 37.77364, "ACCESS_LAT": 55.39789, "ACCESS_LNG": 37.77367, "RESULT_TYPE": "houseNumber", "HOUSE_NUMBER_TYPE": "PA", "QUERY_SCORE": 1.0, "CITY_SCORE": 1.0, "STREET_SCORE": 1.0, "HOUSE_NUMBER_SCORE": 1.0, "distances": 53.0 }, "geometry": { "type": "LineString", "coordinates": [ [ 37.772873, 55.397914569335867 ], [ 37.77364, 55.39773 ] ] } },
{ "type": "Feature", "properties": { "ADDRESS": "Домодедово, ул. Кирова, д. 7, корп. 1 ", "ORIGINAL_LAT": 55.43935428, "ORIGINAL_LNG": 37.7501455, "LABEL": "улица Кирова 7 корп 1, Домодедово, Россия, 142005", "COUNTRY": "Россия", "ADMIN3": "Московская область", "CITY": "Домодедово", "POSTALCODE": "142005", "LAT": 55.43967, "LNG": 37.75001, "ACCESS_LAT": 55.43981, "ACCESS_LNG": 37.7502, "RESULT_TYPE": "houseNumber", "HOUSE_NUMBER_TYPE": "PA", "QUERY_SCORE": 1.0, "CITY_SCORE": 1.0, "STREET_SCORE": 1.0, "HOUSE_NUMBER_SCORE": 1.0, "distances": 36.0 }, "geometry": { "type": "LineString", "coordinates": [ [ 37.7501455, 55.43935428 ], [ 37.75001, 55.43967 ] ] } },
{ "type": "Feature", "properties": { "ADDRESS": "Дрожжино, Новое шоссе, д. 13", "ORIGINAL_LAT": 55.526948569192278, "ORIGINAL_LNG": 37.590659, "LABEL": "Новое шоссе 13, Ленинский район, Россия, 142718", "COUNTRY": "Россия", "ADMIN3": "Московская область", "CITY": "Ленинский район", "POSTALCODE": "142718", "LAT": 55.52695, "LNG": 37.59058, "ACCESS_LAT": 55.52676, "ACCESS_LNG": 37.59049, "RESULT_TYPE": "houseNumber", "HOUSE_NUMBER_TYPE": "PA", "QUERY_SCORE": 1.0, "CITY_SCORE": null, "STREET_SCORE": 1.0, "HOUSE_NUMBER_SCORE": 1.0, "distances": 5.0 }, "geometry": { "type": "LineString", "coordinates": [ [ 37.590659, 55.526948569192278 ], [ 37.59058, 55.52695 ] ] } },
{ "type": "Feature", "properties": { "ADDRESS": "Ессентуки, ул. Володарского, д. 44", "ORIGINAL_LAT": 44.040495574595319, "ORIGINAL_LNG": 42.8557655, "LABEL": "улица Володарского 44, Ессентуки, Россия, 357601", "COUNTRY": "Россия", "ADMIN3": "Ставропольский край", "CITY": "Ессентуки", "POSTALCODE": "357601", "LAT": 44.04049, "LNG": 42.85571, "ACCESS_LAT": 44.04054, "ACCESS_LNG": 42.85593, "RESULT_TYPE": "houseNumber", "HOUSE_NUMBER_TYPE": "PA", "QUERY_SCORE": 1.0, "CITY_SCORE": 1.0, "STREET_SCORE": 1.0, "HOUSE_NUMBER_SCORE": 1.0, "distances": 4.0 }, "geometry": { "type": "LineString", "coordinates": [ [ 42.855765499999968, 44.040495574595319 ], [ 42.85571, 44.04049 ] ] } },
{ "type": "Feature", "properties": { "ADDRESS": "Ессентукская, ул. Павлова, д. 6а", "ORIGINAL_LAT": 44.028324574563918, "ORIGINAL_LNG": 42.8792025, "LABEL": "улица Павлова 6А, Предгорный район, Россия, 357350", "COUNTRY": "Россия", "ADMIN3": "Ставропольский край", "CITY": "Предгорный район", "POSTALCODE": "357350", "LAT": 44.02856, "LNG": 42.87955, "ACCESS_LAT": 44.02859, "ACCESS_LNG": 42.87966, "RESULT_TYPE": "houseNumber", "HOUSE_NUMBER_TYPE": "PA", "QUERY_SCORE": 1.0, "CITY_SCORE": null, "STREET_SCORE": 1.0, "HOUSE_NUMBER_SCORE": 1.0, "distances": 38.0 }, "geometry": { "type": "LineString", "coordinates": [ [ 42.8792025, 44.028324574563918 ], [ 42.87955, 44.02856 ] ] } },
{ "type": "Feature", "properties": { "ADDRESS": "Жуковский, ул. Королева, д. 6, стр. 2", "ORIGINAL_LAT": 55.60909, "ORIGINAL_LNG": 38.092539, "LABEL": "улица Королёва 4 стр 2, Жуковский, Россия, 140180", "COUNTRY": "Россия", "ADMIN3": "Московская область", "CITY": "Жуковский", "POSTALCODE": "140180", "LAT": 55.60975, "LNG": 38.09326, "ACCESS_LAT": 55.60965, "ACCESS_LNG": 38.09351, "RESULT_TYPE": "houseNumber", "HOUSE_NUMBER_TYPE": "PA", "QUERY_SCORE": 0.99, "CITY_SCORE": 1.0, "STREET_SCORE": 1.0, "HOUSE_NUMBER_SCORE": 0.98, "distances": 86.0 }, "geometry": { "type": "LineString", "coordinates": [ [ 38.092539, 55.60909 ], [ 38.09326, 55.60975 ] ] } },
{ "type": "Feature", "properties": { "ADDRESS": "Залукокоаже, ул. Комсомольская, д. 91", "ORIGINAL_LAT": 43.896443574575841, "ORIGINAL_LNG": 43.221901, "LABEL": "Комсомольская улица 91, Зольский район, Россия, 361701", "COUNTRY": "Россия", "ADMIN3": "Кабардино-Балкарская Республика", "CITY": "Зольский район", "POSTALCODE": "361701", "LAT": 43.89552, "LNG": 43.22758, "ACCESS_LAT": 43.89537, "ACCESS_LNG": 43.22754, "RESULT_TYPE": "houseNumber", "HOUSE_NUMBER_TYPE": "PA", "QUERY_SCORE": 1.0, "CITY_SCORE": null, "STREET_SCORE": 1.0, "HOUSE_NUMBER_SCORE": 1.0, "distances": 468.0 }, "geometry": { "type": "LineString", "coordinates": [ [ 43.221901, 43.896443574575841 ], [ 43.22758, 43.89552 ] ] } },
{ "type": "Feature", "properties": { "ADDRESS": "Звенигород, мкр. Пронина, д. 5", "ORIGINAL_LAT": 55.741895568970882, "ORIGINAL_LNG": 36.856367, "LABEL": "микрорайон Пронина 13, Звенигород, Россия, 143180", "COUNTRY": "Россия", "ADMIN3": "Московская область", "CITY": "Звенигород", "POSTALCODE": "143180", "LAT": 55.74003, "LNG": 36.8592, "ACCESS_LAT": 55.73983, "ACCESS_LNG": 36.85904, "RESULT_TYPE": "houseNumber", "HOUSE_NUMBER_TYPE": "PA", "QUERY_SCORE": 0.8, "CITY_SCORE": 1.0, "STREET_SCORE": 0.9, "HOUSE_NUMBER_SCORE": 0.92, "distances": 274.0 }, "geometry": { "type": "LineString", "coordinates": [ [ 36.856367, 55.741895568970882 ], [ 36.8592, 55.74003 ] ] } },
{ "type": "Feature", "properties": { "ADDRESS": "Зеленоград, корпус 1801Б", "ORIGINAL_LAT": 55.978034568742217, "ORIGINAL_LNG": 37.1652345, "LABEL": "Зеленоград СНТ, Пушкинский район, Центральный федеральный округ, Россия", "COUNTRY": "Россия", "ADMIN3": "Московская область", "CITY": "Пушкинский район", "POSTALCODE": "141255", "LAT": 56.11967, "LNG": 37.81999, "ACCESS_LAT": null, "ACCESS_LNG": null, "RESULT_TYPE": "locality", "HOUSE_NUMBER_TYPE": null, "QUERY_SCORE": 0.43, "CITY_SCORE": null, "STREET_SCORE": null, "HOUSE_NUMBER_SCORE": null, "distances": 43742.0 }, "geometry": { "type": "LineString", "coordinates": [ [ 37.1652345, 55.978034568742217 ], [ 37.81999, 56.11967 ] ] } },
{ "type": "Feature", "properties": { "ADDRESS": "Зеленоград, корпус 250", "ORIGINAL_LAT": 56.005953068724331, "ORIGINAL_LNG": 37.2032245, "LABEL": "Зерноград, Зерноградский район, Южный федеральный округ, Россия", "COUNTRY": "Россия", "ADMIN3": "Ростовская область", "CITY": "Зерноградский район", "POSTALCODE": "347740", "LAT": 46.85553, "LNG": 40.31639, "ACCESS_LAT": null, "ACCESS_LNG": null, "RESULT_TYPE": "locality", "HOUSE_NUMBER_TYPE": null, "QUERY_SCORE": 0.37, "CITY_SCORE": null, "STREET_SCORE": null, "HOUSE_NUMBER_SCORE": null, "distances": 1040529.0 }, "geometry": { "type": "LineString", "coordinates": [ [ 37.203224499999912, 56.005953068724331 ], [ 40.31639, 46.85553 ] ] } },
{ "type": "Feature", "properties": { "ADDRESS": "Ивантеевка, ул. Толмачева, д. 1а", "ORIGINAL_LAT": 55.969134013685242, "ORIGINAL_LNG": 37.912013177909721, "LABEL": "улица Толмачёва 1А, Ивантеевка, Россия, 141282", "COUNTRY": "Россия", "ADMIN3": "Московская область", "CITY": "Ивантеевка", "POSTALCODE": "141282", "LAT": 55.96913, "LNG": 37.91208, "ACCESS_LAT": 55.9692, "ACCESS_LNG": 37.9123, "RESULT_TYPE": "houseNumber", "HOUSE_NUMBER_TYPE": "PA", "QUERY_SCORE": 1.0, "CITY_SCORE": 1.0, "STREET_SCORE": 1.0, "HOUSE_NUMBER_SCORE": 1.0, "distances": 4.0 }, "geometry": { "type": "LineString", "coordinates": [ [ 37.912013177909721, 55.969134013685242 ], [ 37.91208, 55.96913 ] ] } },
{ "type": "Feature", "properties": { "ADDRESS": "Истра, ул. 9-й Гвардейской дивизии, д. 42", "ORIGINAL_LAT": 55.912657568813167, "ORIGINAL_LNG": 36.8641555, "LABEL": "улица 9-й Гвардейской Дивизии 42, Истринский район, Россия, 143500", "COUNTRY": "Россия", "ADMIN3": "Московская область", "CITY": "Истринский район", "POSTALCODE": "143500", "LAT": 55.91269, "LNG": 36.86404, "ACCESS_LAT": 55.91257, "ACCESS_LNG": 36.86396, "RESULT_TYPE": "houseNumber", "HOUSE_NUMBER_TYPE": "PA", "QUERY_SCORE": 1.0, "CITY_SCORE": null, "STREET_SCORE": 1.0, "HOUSE_NUMBER_SCORE": 1.0, "distances": 8.0 }, "geometry": { "type": "LineString", "coordinates": [ [ 36.8641555, 55.912657568813167 ], [ 36.86404, 55.91269 ] ] } },
{ "type": "Feature", "properties": { "ADDRESS": "Кашира, ул. Юбилейная, д. 11", "ORIGINAL_LAT": 54.839981569854316, "ORIGINAL_LNG": 38.247552, "LABEL": "Юбилейная улица 11, Кашира, Россия, 142904", "COUNTRY": "Россия", "ADMIN3": "Московская область", "CITY": "Кашира", "POSTALCODE": "142904", "LAT": 54.83998, "LNG": 38.24745, "ACCESS_LAT": 54.84014, "ACCESS_LNG": 38.2474, "RESULT_TYPE": "houseNumber", "HOUSE_NUMBER_TYPE": "PA", "QUERY_SCORE": 1.0, "CITY_SCORE": 1.0, "STREET_SCORE": 1.0, "HOUSE_NUMBER_SCORE": 1.0, "distances": 7.0 }, "geometry": { "type": "LineString", "coordinates": [ [ 38.247552, 54.839981569854316 ], [ 38.24745, 54.83998 ] ] } },
{ "type": "Feature", "properties": { "ADDRESS": "Киржач, ул. Серегина, д. 5", "ORIGINAL_LAT": 56.162404, "ORIGINAL_LNG": 38.8716269, "LABEL": "улица Серёгина 5, Киржачский район, Россия, 601010", "COUNTRY": "Россия", "ADMIN3": "Владимирская область", "CITY": "Киржачский район", "POSTALCODE": "601010", "LAT": 56.16247, "LNG": 38.87181, "ACCESS_LAT": 56.16228, "ACCESS_LNG": 38.8714, "RESULT_TYPE": "houseNumber", "HOUSE_NUMBER_TYPE": "PA", "QUERY_SCORE": 1.0, "CITY_SCORE": null, "STREET_SCORE": 1.0, "HOUSE_NUMBER_SCORE": 1.0, "distances": 14.0 }, "geometry": { "type": "LineString", "coordinates": [ [ 38.8716269, 56.162404 ], [ 38.87181, 56.16247 ] ] } },
{ "type": "Feature", "properties": { "ADDRESS": "Клин, ул. Гагарина, д. 4\/10", "ORIGINAL_LAT": 56.333392, "ORIGINAL_LNG": 36.731414, "LABEL": "улица Гагарина 4\/10, Клинский район, Россия, 141601", "COUNTRY": "Россия", "ADMIN3": "Московская область", "CITY": "Клинский район", "POSTALCODE": "141601", "LAT": 56.33332, "LNG": 36.73134, "ACCESS_LAT": 56.33319, "ACCESS_LNG": 36.73159, "RESULT_TYPE": "houseNumber", "HOUSE_NUMBER_TYPE": "PA", "QUERY_SCORE": 1.0, "CITY_SCORE": null, "STREET_SCORE": 1.0, "HOUSE_NUMBER_SCORE": 1.0, "distances": 9.0 }, "geometry": { "type": "LineString", "coordinates": [ [ 36.731414, 56.333392 ], [ 36.73134, 56.33332 ] ] } },
{ "type": "Feature", "properties": { "ADDRESS": "Коломна, ул. Октябрьской революции, д. 318а", "ORIGINAL_LAT": 55.09188078, "ORIGINAL_LNG": 38.7744945, "LABEL": "улица Октябрьской Революции 318А, Коломна, Россия, 140407", "COUNTRY": "Россия", "ADMIN3": "Московская область", "CITY": "Коломна", "POSTALCODE": "140407", "LAT": 55.09171, "LNG": 38.77424, "ACCESS_LAT": 55.09185, "ACCESS_LNG": 38.77404, "RESULT_TYPE": "houseNumber", "HOUSE_NUMBER_TYPE": "PA", "QUERY_SCORE": 1.0, "CITY_SCORE": 1.0, "STREET_SCORE": 1.0, "HOUSE_NUMBER_SCORE": 1.0, "distances": 25.0 }, "geometry": { "type": "LineString", "coordinates": [ [ 38.7744945, 55.09188078 ], [ 38.77424, 55.09171 ] ] } },
{ "type": "Feature", "properties": { "ADDRESS": "Королёв, проспект Королева, д. 5Д, ТЦ “Статус”, 3 этаж", "ORIGINAL_LAT": 55.921802, "ORIGINAL_LNG": 37.843259, "LABEL": "Статус, проспект Королёва 5Д, Королёв, Россия, 141078", "COUNTRY": "Россия", "ADMIN3": "Московская область", "CITY": "Королёв", "POSTALCODE": "141078", "LAT": 55.92194, "LNG": 37.84385, "ACCESS_LAT": 55.92203, "ACCESS_LNG": 37.84384, "RESULT_TYPE": "place", "HOUSE_NUMBER_TYPE": null, "QUERY_SCORE": 0.73, "CITY_SCORE": 0.71, "STREET_SCORE": 1.0, "HOUSE_NUMBER_SCORE": 1.0, "distances": 40.0 }, "geometry": { "type": "LineString", "coordinates": [ [ 37.843259, 55.921802 ], [ 37.84385, 55.92194 ] ] } },
{ "type": "Feature", "properties": { "ADDRESS": "Котельники, ул. Сосновая, д. 2, корп. 4", "ORIGINAL_LAT": 55.674717069066318, "ORIGINAL_LNG": 37.85453, "LABEL": "Сосновая улица 2 корп 4, Котельники, Россия, 140054", "COUNTRY": "Россия", "ADMIN3": "Московская область", "CITY": "Котельники", "POSTALCODE": "140054", "LAT": 55.67471, "LNG": 37.85443, "ACCESS_LAT": 55.67469, "ACCESS_LNG": 37.85414, "RESULT_TYPE": "houseNumber", "HOUSE_NUMBER_TYPE": "PA", "QUERY_SCORE": 1.0, "CITY_SCORE": 1.0, "STREET_SCORE": 1.0, "HOUSE_NUMBER_SCORE": 1.0, "distances": 6.0 }, "geometry": { "type": "LineString", "coordinates": [ [ 37.85453, 55.674717069066318 ], [ 37.85443, 55.67471 ] ] } },
{ "type": "Feature", "properties": { "ADDRESS": "Красково, ул. Карла Маркса, д. 61", "ORIGINAL_LAT": 55.658143992472127, "ORIGINAL_LNG": 37.982274223209281, "LABEL": "улица Карла Маркса 61, Люберецкий район, Россия, 140050", "COUNTRY": "Россия", "ADMIN3": "Московская область", "CITY": "Люберецкий район", "POSTALCODE": "140050", "LAT": 55.65809, "LNG": 37.98264, "ACCESS_LAT": 55.65785, "ACCESS_LNG": 37.98247, "RESULT_TYPE": "houseNumber", "HOUSE_NUMBER_TYPE": "PA", "QUERY_SCORE": 1.0, "CITY_SCORE": null, "STREET_SCORE": 1.0, "HOUSE_NUMBER_SCORE": 1.0, "distances": 24.0 }, "geometry": { "type": "LineString", "coordinates": [ [ 37.982274223209281, 55.658143992472127 ], [ 37.98264, 55.65809 ] ] } },
{ "type": "Feature", "properties": { "ADDRESS": "Красногорск, ул. Карла Маркса, д. 61", "ORIGINAL_LAT": 55.658143992472127, "ORIGINAL_LNG": 37.982274223209281, "LABEL": "улица Карла Маркса 83, Томаринский район, Россия, 694810", "COUNTRY": "Россия", "ADMIN3": "Сахалинская область", "CITY": "Томаринский район", "POSTALCODE": "694810", "LAT": 48.40126, "LNG": 142.09549, "ACCESS_LAT": 48.4012, "ACCESS_LNG": 142.09531, "RESULT_TYPE": "houseNumber", "HOUSE_NUMBER_TYPE": "interpolated", "QUERY_SCORE": 0.94, "CITY_SCORE": null, "STREET_SCORE": 1.0, "HOUSE_NUMBER_SCORE": 0.78, "distances": 6498045.0 }, "geometry": { "type": "LineString", "coordinates": [ [ 37.982274223209281, 55.658143992472127 ], [ 142.09549, 48.40126 ] ] } },
{ "type": "Feature", "properties": { "ADDRESS": "Краснознаменск, ул. Победы, д. 15г", "ORIGINAL_LAT": 55.59536721, "ORIGINAL_LNG": 37.03606484, "LABEL": "улица Победы 15г, Краснознаменск, Россия, 143090", "COUNTRY": "Россия", "ADMIN3": "Московская область", "CITY": "Краснознаменск", "POSTALCODE": "143090", "LAT": 55.59455, "LNG": 37.03568, "ACCESS_LAT": 55.59455, "ACCESS_LNG": 37.03544, "RESULT_TYPE": "houseNumber", "HOUSE_NUMBER_TYPE": "interpolated", "QUERY_SCORE": 0.96, "CITY_SCORE": 1.0, "STREET_SCORE": 1.0, "HOUSE_NUMBER_SCORE": 1.0, "distances": 94.0 }, "geometry": { "type": "LineString", "coordinates": [ [ 37.03606484, 55.59536721 ], [ 37.03568, 55.59455 ] ] } },
{ "type": "Feature", "properties": { "ADDRESS": "Лобня, ул. Физкультурная, д. 4", "ORIGINAL_LAT": 56.007166, "ORIGINAL_LNG": 37.45027, "LABEL": "Физкультурная улица 4, Лобня, Россия, 141732", "COUNTRY": "Россия", "ADMIN3": "Московская область", "CITY": "Лобня", "POSTALCODE": "141732", "LAT": 56.0072, "LNG": 37.45026, "ACCESS_LAT": 56.00717, "ACCESS_LNG": 37.44995, "RESULT_TYPE": "houseNumber", "HOUSE_NUMBER_TYPE": "PA", "QUERY_SCORE": 1.0, "CITY_SCORE": 1.0, "STREET_SCORE": 1.0, "HOUSE_NUMBER_SCORE": 1.0, "distances": 4.0 }, "geometry": { "type": "LineString", "coordinates": [ [ 37.45027, 56.007166 ], [ 37.45026, 56.0072 ] ] } },
{ "type": "Feature", "properties": { "ADDRESS": "Лопатино, ул. Сухановская, д. 19", "ORIGINAL_LAT": 55.532533069176893, "ORIGINAL_LNG": 37.640228, "LABEL": "Сухановская улица 19, Ленинский район, Россия, 142702", "COUNTRY": "Россия", "ADMIN3": "Московская область", "CITY": "Ленинский район", "POSTALCODE": "142702", "LAT": 55.53256, "LNG": 37.6402, "ACCESS_LAT": 55.53255, "ACCESS_LNG": 37.64046, "RESULT_TYPE": "houseNumber", "HOUSE_NUMBER_TYPE": "PA", "QUERY_SCORE": 1.0, "CITY_SCORE": null, "STREET_SCORE": 1.0, "HOUSE_NUMBER_SCORE": 1.0, "distances": 3.0 }, "geometry": { "type": "LineString", "coordinates": [ [ 37.640228, 55.532533069176893 ], [ 37.6402, 55.53256 ] ] } },
{ "type": "Feature", "properties": { "ADDRESS": "Луховицы, ул. 40 лет Октября, д. 36\/7", "ORIGINAL_LAT": 54.952234, "ORIGINAL_LNG": 39.022714, "LABEL": "улица 40 лет Октября 36\/7, Луховицкий район, Россия, 140500", "COUNTRY": "Россия", "ADMIN3": "Московская область", "CITY": "Луховицкий район", "POSTALCODE": "140500", "LAT": 54.95216, "LNG": 39.02292, "ACCESS_LAT": 54.95205, "ACCESS_LNG": 39.0229, "RESULT_TYPE": "houseNumber", "HOUSE_NUMBER_TYPE": "PA", "QUERY_SCORE": 1.0, "CITY_SCORE": null, "STREET_SCORE": 1.0, "HOUSE_NUMBER_SCORE": 1.0, "distances": 16.0 }, "geometry": { "type": "LineString", "coordinates": [ [ 39.022714, 54.952234 ], [ 39.02292, 54.95216 ] ] } },
{ "type": "Feature", "properties": { "ADDRESS": "Люберцы, ул. Дружбы, д. 7, корп. 1", "ORIGINAL_LAT": 55.702698069019128, "ORIGINAL_LNG": 37.9635045, "LABEL": "улица Дружбы 7 корп 1, Люберецкий район, Россия, 140000", "COUNTRY": "Россия", "ADMIN3": "Московская область", "CITY": "Люберецкий район", "POSTALCODE": "140000", "LAT": 55.70271, "LNG": 37.96357, "ACCESS_LAT": 55.70279, "ACCESS_LNG": 37.96327, "RESULT_TYPE": "houseNumber", "HOUSE_NUMBER_TYPE": "PA", "QUERY_SCORE": 1.0, "CITY_SCORE": null, "STREET_SCORE": 1.0, "HOUSE_NUMBER_SCORE": 1.0, "distances": 4.0 }, "geometry": { "type": "LineString", "coordinates": [ [ 37.9635045, 55.702698069019128 ], [ 37.96357, 55.70271 ] ] } },
{ "type": "Feature", "properties": { "ADDRESS": "Люберцы, Комсомольский проспект, д. 16\/2", "ORIGINAL_LAT": 55.691196, "ORIGINAL_LNG": 37.906597, "LABEL": "Комсомольский проспект 16\/2, Люберецкий район, Россия, 140000", "COUNTRY": "Россия", "ADMIN3": "Московская область", "CITY": "Люберецкий район", "POSTALCODE": "140000", "LAT": 55.69114, "LNG": 37.90657, "ACCESS_LAT": 55.69127, "ACCESS_LNG": 37.90632, "RESULT_TYPE": "houseNumber", "HOUSE_NUMBER_TYPE": "PA", "QUERY_SCORE": 1.0, "CITY_SCORE": null, "STREET_SCORE": 1.0, "HOUSE_NUMBER_SCORE": 1.0, "distances": 6.0 }, "geometry": { "type": "LineString", "coordinates": [ [ 37.906597, 55.691196 ], [ 37.90657, 55.69114 ] ] } },
{ "type": "Feature", "properties": { "ADDRESS": "Люберцы, пос. ВУГИ, д. 18", "ORIGINAL_LAT": 55.66019578, "ORIGINAL_LNG": 37.9314075, "LABEL": "посёлок Вуги 18, Люберецкий район, Россия, 140004", "COUNTRY": "Россия", "ADMIN3": "Московская область", "CITY": "Люберецкий район", "POSTALCODE": "140004", "LAT": 55.66029, "LNG": 37.93146, "ACCESS_LAT": 55.66033, "ACCESS_LNG": 37.93128, "RESULT_TYPE": "houseNumber", "HOUSE_NUMBER_TYPE": "PA", "QUERY_SCORE": 0.82, "CITY_SCORE": null, "STREET_SCORE": 0.9, "HOUSE_NUMBER_SCORE": 1.0, "distances": 11.0 }, "geometry": { "type": "LineString", "coordinates": [ [ 37.9314075, 55.66019578 ], [ 37.93146, 55.66029 ] ] } },
{ "type": "Feature", "properties": { "ADDRESS": "Люберцы, ул. Кирова, д. 51", "ORIGINAL_LAT": 55.679605, "ORIGINAL_LNG": 37.884992, "LABEL": "улица Кирова 51, Люберецкий район, Россия, 140005", "COUNTRY": "Россия", "ADMIN3": "Московская область", "CITY": "Люберецкий район", "POSTALCODE": "140005", "LAT": 55.67952, "LNG": 37.88509, "ACCESS_LAT": 55.67936, "ACCESS_LNG": 37.88482, "RESULT_TYPE": "houseNumber", "HOUSE_NUMBER_TYPE": "PA", "QUERY_SCORE": 1.0, "CITY_SCORE": null, "STREET_SCORE": 1.0, "HOUSE_NUMBER_SCORE": 1.0, "distances": 11.0 }, "geometry": { "type": "LineString", "coordinates": [ [ 37.884992, 55.679605 ], [ 37.88509, 55.67952 ] ] } },
{ "type": "Feature", "properties": { "ADDRESS": "Малино, р.п. Малино, ул. Донская, д. 3", "ORIGINAL_LAT": 55.112309069579673, "ORIGINAL_LNG": 38.174519, "LABEL": "Донская улица 3, Ступинский район, Россия, 142850", "COUNTRY": "Россия", "ADMIN3": "Московская область", "CITY": "Ступинский район", "POSTALCODE": "142850", "LAT": 55.11217, "LNG": 38.17498, "ACCESS_LAT": 55.11257, "ACCESS_LNG": 38.17484, "RESULT_TYPE": "houseNumber", "HOUSE_NUMBER_TYPE": "PA", "QUERY_SCORE": 0.68, "CITY_SCORE": null, "STREET_SCORE": 1.0, "HOUSE_NUMBER_SCORE": 1.0, "distances": 33.0 }, "geometry": { "type": "LineString", "coordinates": [ [ 38.174519, 55.112309069579673 ], [ 38.17498, 55.11217 ] ] } },
{ "type": "Feature", "properties": { "ADDRESS": "Махачкала, Проспект Петра I, д. 125", "ORIGINAL_LAT": 42.960559074477032, "ORIGINAL_LNG": 47.5514395, "LABEL": "проспект Петра Первого 91, Махачкала, Россия, 367000", "COUNTRY": "Россия", "ADMIN3": "Республика Дагестан", "CITY": "Махачкала", "POSTALCODE": "367000", "LAT": 42.96595, "LNG": 47.54394, "ACCESS_LAT": 42.9661, "ACCESS_LNG": 47.54377, "RESULT_TYPE": "houseNumber", "HOUSE_NUMBER_TYPE": "PA", "QUERY_SCORE": 0.8, "CITY_SCORE": 1.0, "STREET_SCORE": 0.32, "HOUSE_NUMBER_SCORE": 0.66, "distances": 856.0 }, "geometry": { "type": "LineString", "coordinates": [ [ 47.5514395, 42.960559074477032 ], [ 47.54394, 42.96595 ] ] } },
{ "type": "Feature", "properties": { "ADDRESS": "Махачкала, ул. Магомеда Гаджиева, д. 27А", "ORIGINAL_LAT": 42.983724, "ORIGINAL_LNG": 47.498751, "LABEL": "улица Магомеда Гаджиева 27а, Махачкала, Россия, 367912", "COUNTRY": "Россия", "ADMIN3": "Республика Дагестан", "CITY": "Махачкала", "POSTALCODE": "367912", "LAT": 43.06037, "LNG": 47.33562, "ACCESS_LAT": 43.06031, "ACCESS_LNG": 47.33579, "RESULT_TYPE": "houseNumber", "HOUSE_NUMBER_TYPE": "interpolated", "QUERY_SCORE": 0.97, "CITY_SCORE": 1.0, "STREET_SCORE": 1.0, "HOUSE_NUMBER_SCORE": 1.0, "distances": 15790.0 }, "geometry": { "type": "LineString", "coordinates": [ [ 47.498751, 42.983724 ], [ 47.33562, 43.06037 ] ] } },
{ "type": "Feature", "properties": { "ADDRESS": "Мисайлово, Литературный бульвар, д. 2", "ORIGINAL_LAT": 55.557195069180821, "ORIGINAL_LNG": 37.813881, "LABEL": "Литературный бульвар 2, Ленинский район, Россия, 142714", "COUNTRY": "Россия", "ADMIN3": "Московская область", "CITY": "Ленинский район", "POSTALCODE": "142714", "LAT": 55.55723, "LNG": 37.81386, "ACCESS_LAT": 55.55723, "ACCESS_LNG": 37.81414, "RESULT_TYPE": "houseNumber", "HOUSE_NUMBER_TYPE": "PA", "QUERY_SCORE": 1.0, "CITY_SCORE": null, "STREET_SCORE": 1.0, "HOUSE_NUMBER_SCORE": 1.0, "distances": 4.0 }, "geometry": { "type": "LineString", "coordinates": [ [ 37.813881, 55.557195069180821 ], [ 37.81386, 55.55723 ] ] } },
{ "type": "Feature", "properties": { "ADDRESS": "Монино, Новинское шоссе, д. 4", "ORIGINAL_LAT": 55.828096068924069, "ORIGINAL_LNG": 38.20662449999989, "LABEL": "Новинское шоссе 4, Щёлковский район, Россия, 141171", "COUNTRY": "Россия", "ADMIN3": "Московская область", "CITY": "Щёлковский район", "POSTALCODE": "141171", "LAT": 55.84447, "LNG": 38.19968, "ACCESS_LAT": 55.8446, "ACCESS_LNG": 38.19995, "RESULT_TYPE": "houseNumber", "HOUSE_NUMBER_TYPE": "PA", "QUERY_SCORE": 1.0, "CITY_SCORE": null, "STREET_SCORE": 1.0, "HOUSE_NUMBER_SCORE": 1.0, "distances": 1874.0 }, "geometry": { "type": "LineString", "coordinates": [ [ 38.20662449999989, 55.828096068924069 ], [ 38.19968, 55.84447 ] ] } },
{ "type": "Feature", "properties": { "ADDRESS": "Москва, 3-й Автозаводский проезд, д. 4", "ORIGINAL_LAT": 55.706690069029349, "ORIGINAL_LNG": 37.654987, "LABEL": "3-й Автозаводский проезд 4, Москва, Россия, 115280", "COUNTRY": "Россия", "ADMIN3": "Москва", "CITY": "Москва", "POSTALCODE": "115280", "LAT": 55.7069, "LNG": 37.65502, "ACCESS_LAT": 55.70659, "ACCESS_LNG": 37.65471, "RESULT_TYPE": "houseNumber", "HOUSE_NUMBER_TYPE": "PA", "QUERY_SCORE": 1.0, "CITY_SCORE": 1.0, "STREET_SCORE": 1.0, "HOUSE_NUMBER_SCORE": 1.0, "distances": 23.0 }, "geometry": { "type": "LineString", "coordinates": [ [ 37.654987, 55.706690069029349 ], [ 37.65502, 55.7069 ] ] } },
{ "type": "Feature", "properties": { "ADDRESS": "Москва, ул. Профсоюзная, д. 5\/9", "ORIGINAL_LAT": 55.684413777227761, "ORIGINAL_LNG": 37.57115095767206, "LABEL": "Профсоюзная улица 5\/9, Москва, Россия, 117036", "COUNTRY": "Россия", "ADMIN3": "Москва", "CITY": "Москва", "POSTALCODE": "117036", "LAT": 55.68485, "LNG": 37.5711, "ACCESS_LAT": 55.68479, "ACCESS_LNG": 37.5713, "RESULT_TYPE": "houseNumber", "HOUSE_NUMBER_TYPE": "PA", "QUERY_SCORE": 1.0, "CITY_SCORE": 1.0, "STREET_SCORE": 1.0, "HOUSE_NUMBER_SCORE": 1.0, "distances": 49.0 }, "geometry": { "type": "LineString", "coordinates": [ [ 37.57115095767206, 55.684413777227761 ], [ 37.5711, 55.68485 ] ] } },
{ "type": "Feature", "properties": { "ADDRESS": "Москва, Варшавское шоссе, д. 158, корп. 2", "ORIGINAL_LAT": 55.583871069130446, "ORIGINAL_LNG": 37.5956625, "LABEL": "Варшавское шоссе 158 корп 2, Москва, Россия, 117405", "COUNTRY": "Россия", "ADMIN3": "Москва", "CITY": "Москва", "POSTALCODE": "117405", "LAT": 55.58401, "LNG": 37.59599, "ACCESS_LAT": 55.5841, "ACCESS_LNG": 37.59562, "RESULT_TYPE": "houseNumber", "HOUSE_NUMBER_TYPE": "PA", "QUERY_SCORE": 1.0, "CITY_SCORE": 1.0, "STREET_SCORE": 1.0, "HOUSE_NUMBER_SCORE": 1.0, "distances": 26.0 }, "geometry": { "type": "LineString", "coordinates": [ [ 37.595662499999989, 55.583871069130446 ], [ 37.59599, 55.58401 ] ] } },
{ "type": "Feature", "properties": { "ADDRESS": "Москва, ул. Бауманская, д. 33\/2, стр. 8", "ORIGINAL_LAT": 55.772487, "ORIGINAL_LNG": 37.67996, "LABEL": "Бауманская улица 33\/2 стр 8, Москва, Россия, 105005", "COUNTRY": "Россия", "ADMIN3": "Москва", "CITY": "Москва", "POSTALCODE": "105005", "LAT": 55.77237, "LNG": 37.68012, "ACCESS_LAT": 55.77231, "ACCESS_LNG": 37.67997, "RESULT_TYPE": "houseNumber", "HOUSE_NUMBER_TYPE": "PA", "QUERY_SCORE": 1.0, "CITY_SCORE": 1.0, "STREET_SCORE": 1.0, "HOUSE_NUMBER_SCORE": 1.0, "distances": 16.0 }, "geometry": { "type": "LineString", "coordinates": [ [ 37.67996, 55.772487 ], [ 37.68012, 55.77237 ] ] } },
{ "type": "Feature", "properties": { "ADDRESS": "Москва, ул. Плещеева, д. 8", "ORIGINAL_LAT": 55.884878, "ORIGINAL_LNG": 37.608414, "LABEL": "улица Плещеева 8, Москва, Россия, 127560", "COUNTRY": "Россия", "ADMIN3": "Москва", "CITY": "Москва", "POSTALCODE": "127560", "LAT": 55.88483, "LNG": 37.60841, "ACCESS_LAT": 55.88497, "ACCESS_LNG": 37.60828, "RESULT_TYPE": "houseNumber", "HOUSE_NUMBER_TYPE": "PA", "QUERY_SCORE": 1.0, "CITY_SCORE": 1.0, "STREET_SCORE": 1.0, "HOUSE_NUMBER_SCORE": 1.0, "distances": 5.0 }, "geometry": { "type": "LineString", "coordinates": [ [ 37.608414, 55.884878 ], [ 37.60841, 55.88483 ] ] } },
{ "type": "Feature", "properties": { "ADDRESS": "Москва, Лазоревый проезд, д. 1", "ORIGINAL_LAT": 55.848740568887649, "ORIGINAL_LNG": 37.6387365, "LABEL": "Лазоревый проезд 1, Москва, Россия, 129323", "COUNTRY": "Россия", "ADMIN3": "Москва", "CITY": "Москва", "POSTALCODE": "129323", "LAT": 55.84875, "LNG": 37.6392, "ACCESS_LAT": 55.84896, "ACCESS_LNG": 37.63926, "RESULT_TYPE": "houseNumber", "HOUSE_NUMBER_TYPE": "PA", "QUERY_SCORE": 1.0, "CITY_SCORE": 1.0, "STREET_SCORE": 1.0, "HOUSE_NUMBER_SCORE": 1.0, "distances": 29.0 }, "geometry": { "type": "LineString", "coordinates": [ [ 37.6387365, 55.848740568887649 ], [ 37.6392, 55.84875 ] ] } },
{ "type": "Feature", "properties": { "ADDRESS": "Москва, ул. Адмирала Лазарева, д. 6", "ORIGINAL_LAT": 55.546174569182213, "ORIGINAL_LNG": 37.5413235, "LABEL": "улица Адмирала Лазарева 6, Москва, Россия, 117042", "COUNTRY": "Россия", "ADMIN3": "Москва", "CITY": "Москва", "POSTALCODE": "117042", "LAT": 55.54637, "LNG": 37.54165, "ACCESS_LAT": 55.54646, "ACCESS_LNG": 37.54137, "RESULT_TYPE": "houseNumber", "HOUSE_NUMBER_TYPE": "PA", "QUERY_SCORE": 1.0, "CITY_SCORE": 1.0, "STREET_SCORE": 1.0, "HOUSE_NUMBER_SCORE": 1.0, "distances": 30.0 }, "geometry": { "type": "LineString", "coordinates": [ [ 37.541323499999933, 55.546174569182213 ], [ 37.54165, 55.54637 ] ] } },
{ "type": "Feature", "properties": { "ADDRESS": "Москва, ул. Грина, д. 30", "ORIGINAL_LAT": 55.56809, "ORIGINAL_LNG": 37.569702, "LABEL": "улица Грина 30, Москва, Россия, 117628", "COUNTRY": "Россия", "ADMIN3": "Москва", "CITY": "Москва", "POSTALCODE": "117628", "LAT": 55.56814, "LNG": 37.56967, "ACCESS_LAT": 55.56841, "ACCESS_LNG": 37.56982, "RESULT_TYPE": "houseNumber", "HOUSE_NUMBER_TYPE": "PA", "QUERY_SCORE": 1.0, "CITY_SCORE": 1.0, "STREET_SCORE": 1.0, "HOUSE_NUMBER_SCORE": 1.0, "distances": 6.0 }, "geometry": { "type": "LineString", "coordinates": [ [ 37.569702, 55.56809 ], [ 37.56967, 55.56814 ] ] } },
{ "type": "Feature", "properties": { "ADDRESS": "Москва, Головинское шоссе, д. 7", "ORIGINAL_LAT": 55.839572068893887, "ORIGINAL_LNG": 37.4931825, "LABEL": "Головинское шоссе 7, Москва, Россия, 125212", "COUNTRY": "Россия", "ADMIN3": "Москва", "CITY": "Москва", "POSTALCODE": "125212", "LAT": 55.83955, "LNG": 37.49314, "ACCESS_LAT": 55.83972, "ACCESS_LNG": 37.4931, "RESULT_TYPE": "houseNumber", "HOUSE_NUMBER_TYPE": "PA", "QUERY_SCORE": 1.0, "CITY_SCORE": 1.0, "STREET_SCORE": 1.0, "HOUSE_NUMBER_SCORE": 1.0, "distances": 4.0 }, "geometry": { "type": "LineString", "coordinates": [ [ 37.493182499999982, 55.839572068893887 ], [ 37.49314, 55.83955 ] ] } },
{ "type": "Feature", "properties": { "ADDRESS": "Москва, Боровское шоссе, д. 2, корп. 7", "ORIGINAL_LAT": 55.662278999667649, "ORIGINAL_LNG": 37.415977780426019, "LABEL": "Боровское шоссе 2 корп 7, Москва, Россия, 119618", "COUNTRY": "Россия", "ADMIN3": "Москва", "CITY": "Москва", "POSTALCODE": "119618", "LAT": 55.66166, "LNG": 37.41559, "ACCESS_LAT": 55.66164, "ACCESS_LNG": 37.41529, "RESULT_TYPE": "houseNumber", "HOUSE_NUMBER_TYPE": "PA", "QUERY_SCORE": 1.0, "CITY_SCORE": 1.0, "STREET_SCORE": 1.0, "HOUSE_NUMBER_SCORE": 1.0, "distances": 73.0 }, "geometry": { "type": "LineString", "coordinates": [ [ 37.415977780426019, 55.662278999667649 ], [ 37.41559, 55.66166 ] ] } },
{ "type": "Feature", "properties": { "ADDRESS": "Москва, ул. Генерала Кузнецова, д. 20", "ORIGINAL_LAT": 55.686339930065827, "ORIGINAL_LNG": 37.855890367429019, "LABEL": "улица Генерала Кузнецова 20, Москва, Россия, 109156", "COUNTRY": "Россия", "ADMIN3": "Москва", "CITY": "Москва", "POSTALCODE": "109156", "LAT": 55.68657, "LNG": 37.85638, "ACCESS_LAT": 55.68671, "ACCESS_LNG": 37.85597, "RESULT_TYPE": "houseNumber", "HOUSE_NUMBER_TYPE": "PA", "QUERY_SCORE": 1.0, "CITY_SCORE": 1.0, "STREET_SCORE": 1.0, "HOUSE_NUMBER_SCORE": 1.0, "distances": 40.0 }, "geometry": { "type": "LineString", "coordinates": [ [ 37.855890367429019, 55.686339930065827 ], [ 37.85638, 55.68657 ] ] } },
{ "type": "Feature", "properties": { "ADDRESS": "Москва, ул. Херсонская, д. 17", "ORIGINAL_LAT": 55.652744246955429, "ORIGINAL_LNG": 37.563458417825615, "LABEL": "Херсонская улица 17, Москва, Россия, 117246", "COUNTRY": "Россия", "ADMIN3": "Москва", "CITY": "Москва", "POSTALCODE": "117246", "LAT": 55.65248, "LNG": 37.5632, "ACCESS_LAT": 55.65236, "ACCESS_LNG": 37.56302, "RESULT_TYPE": "houseNumber", "HOUSE_NUMBER_TYPE": "PA", "QUERY_SCORE": 1.0, "CITY_SCORE": 1.0, "STREET_SCORE": 1.0, "HOUSE_NUMBER_SCORE": 1.0, "distances": 34.0 }, "geometry": { "type": "LineString", "coordinates": [ [ 37.563458417825615, 55.652744246955429 ], [ 37.5632, 55.65248 ] ] } },
{ "type": "Feature", "properties": { "ADDRESS": "Москва, ул. Маросейка, д. 6-8", "ORIGINAL_LAT": 55.757455, "ORIGINAL_LNG": 37.634371, "LABEL": "улица Маросейка 6\/8, Москва, Россия, 101000", "COUNTRY": "Россия", "ADMIN3": "Москва", "CITY": "Москва", "POSTALCODE": "101000", "LAT": 55.75722, "LNG": 37.6346, "ACCESS_LAT": 55.75759, "ACCESS_LNG": 37.63437, "RESULT_TYPE": "houseNumber", "HOUSE_NUMBER_TYPE": "PA", "QUERY_SCORE": 1.0, "CITY_SCORE": 1.0, "STREET_SCORE": 1.0, "HOUSE_NUMBER_SCORE": 1.0, "distances": 30.0 }, "geometry": { "type": "LineString", "coordinates": [ [ 37.634371, 55.757455 ], [ 37.6346, 55.75722 ] ] } },
{ "type": "Feature", "properties": { "ADDRESS": "Москва, ул. Воронцовская, д. 26", "ORIGINAL_LAT": 55.735809068984963, "ORIGINAL_LNG": 37.659389, "LABEL": "Воронцовская улица 26, Москва, Россия, 109044", "COUNTRY": "Россия", "ADMIN3": "Москва", "CITY": "Москва", "POSTALCODE": "109044", "LAT": 55.73582, "LNG": 37.65939, "ACCESS_LAT": 55.73596, "ACCESS_LNG": 37.6595, "RESULT_TYPE": "houseNumber", "HOUSE_NUMBER_TYPE": "PA", "QUERY_SCORE": 1.0, "CITY_SCORE": 1.0, "STREET_SCORE": 1.0, "HOUSE_NUMBER_SCORE": 1.0, "distances": 1.0 }, "geometry": { "type": "LineString", "coordinates": [ [ 37.659389, 55.735809068984963 ], [ 37.65939, 55.73582 ] ] } },
{ "type": "Feature", "properties": { "ADDRESS": "Москва, Можайское шоссе, д. 31, кор. 1", "ORIGINAL_LAT": 55.71851656902998, "ORIGINAL_LNG": 37.420392, "LABEL": "Можайское шоссе 31 корп 1, Москва, Россия, 121471", "COUNTRY": "Россия", "ADMIN3": "Москва", "CITY": "Москва", "POSTALCODE": "121471", "LAT": 55.71847, "LNG": 37.42046, "ACCESS_LAT": 55.71829, "ACCESS_LNG": 37.42055, "RESULT_TYPE": "houseNumber", "HOUSE_NUMBER_TYPE": "PA", "QUERY_SCORE": 1.0, "CITY_SCORE": 1.0, "STREET_SCORE": 1.0, "HOUSE_NUMBER_SCORE": 1.0, "distances": 7.0 }, "geometry": { "type": "LineString", "coordinates": [ [ 37.420392, 55.71851656902998 ], [ 37.42046, 55.71847 ] ] } },
{ "type": "Feature", "properties": { "ADDRESS": "Москва, Гришина, д. 16", "ORIGINAL_LAT": 55.722593069010642, "ORIGINAL_LNG": 37.4181915, "LABEL": "улица Гришина 16, Москва, Россия, 121354", "COUNTRY": "Россия", "ADMIN3": "Москва", "CITY": "Москва", "POSTALCODE": "121354", "LAT": 55.72273, "LNG": 37.41821, "ACCESS_LAT": 55.72302, "ACCESS_LNG": 37.41784, "RESULT_TYPE": "houseNumber", "HOUSE_NUMBER_TYPE": "PA", "QUERY_SCORE": 0.99, "CITY_SCORE": 1.0, "STREET_SCORE": 0.9, "HOUSE_NUMBER_SCORE": 1.0, "distances": 15.0 }, "geometry": { "type": "LineString", "coordinates": [ [ 37.418191499999978, 55.722593069010642 ], [ 37.41821, 55.72273 ] ] } },
{ "type": "Feature", "properties": { "ADDRESS": "Москва, Жулебинский бульвар, д. 10\/6", "ORIGINAL_LAT": 55.698538569038213, "ORIGINAL_LNG": 37.849643, "LABEL": "Жулебинский бульвар 10\/6, Москва, Россия, 109145", "COUNTRY": "Россия", "ADMIN3": "Москва", "CITY": "Москва", "POSTALCODE": "109145", "LAT": 55.6985, "LNG": 37.84978, "ACCESS_LAT": 55.69869, "ACCESS_LNG": 37.84985, "RESULT_TYPE": "houseNumber", "HOUSE_NUMBER_TYPE": "PA", "QUERY_SCORE": 1.0, "CITY_SCORE": 1.0, "STREET_SCORE": 1.0, "HOUSE_NUMBER_SCORE": 1.0, "distances": 10.0 }, "geometry": { "type": "LineString", "coordinates": [ [ 37.849643, 55.698538569038213 ], [ 37.84978, 55.6985 ] ] } },
{ "type": "Feature", "properties": { "ADDRESS": "Москва, ул. Люблинская, д. 165, корп. 2", "ORIGINAL_LAT": 55.649683, "ORIGINAL_LNG": 37.745945, "LABEL": "Люблинская улица 165 корп 2, Москва, Россия, 109652", "COUNTRY": "Россия", "ADMIN3": "Москва", "CITY": "Москва", "POSTALCODE": "109652", "LAT": 55.6497, "LNG": 37.74599, "ACCESS_LAT": 55.64965, "ACCESS_LNG": 37.74564, "RESULT_TYPE": "houseNumber", "HOUSE_NUMBER_TYPE": "PA", "QUERY_SCORE": 1.0, "CITY_SCORE": 1.0, "STREET_SCORE": 1.0, "HOUSE_NUMBER_SCORE": 1.0, "distances": 3.0 }, "geometry": { "type": "LineString", "coordinates": [ [ 37.745945, 55.649683 ], [ 37.74599, 55.6497 ] ] } },
{ "type": "Feature", "properties": { "ADDRESS": "Москва, ул. Митинская, д. 44", "ORIGINAL_LAT": 55.848356568886665, "ORIGINAL_LNG": 37.3577165, "LABEL": "Митинская улица 44, Москва, Россия, 125430", "COUNTRY": "Россия", "ADMIN3": "Москва", "CITY": "Москва", "POSTALCODE": "125430", "LAT": 55.84849, "LNG": 37.3575, "ACCESS_LAT": 55.84865, "ACCESS_LNG": 37.3578, "RESULT_TYPE": "houseNumber", "HOUSE_NUMBER_TYPE": "PA", "QUERY_SCORE": 1.0, "CITY_SCORE": 1.0, "STREET_SCORE": 1.0, "HOUSE_NUMBER_SCORE": 1.0, "distances": 20.0 }, "geometry": { "type": "LineString", "coordinates": [ [ 37.357716499999981, 55.848356568886665 ], [ 37.3575, 55.84849 ] ] } },
{ "type": "Feature", "properties": { "ADDRESS": "Москва, ул. Мосфильмовская, д. 17\/25", "ORIGINAL_LAT": 55.715166013490055, "ORIGINAL_LNG": 37.515334751976027, "LABEL": "Мосфильмовская улица 17\/25, Москва, Россия, 119330", "COUNTRY": "Россия", "ADMIN3": "Москва", "CITY": "Москва", "POSTALCODE": "119330", "LAT": 55.71545, "LNG": 37.51613, "ACCESS_LAT": 55.71535, "ACCESS_LNG": 37.51622, "RESULT_TYPE": "houseNumber", "HOUSE_NUMBER_TYPE": "PA", "QUERY_SCORE": 1.0, "CITY_SCORE": 1.0, "STREET_SCORE": 1.0, "HOUSE_NUMBER_SCORE": 1.0, "distances": 59.0 }, "geometry": { "type": "LineString", "coordinates": [ [ 37.515334751976027, 55.715166013490055 ], [ 37.51613, 55.71545 ] ] } },
{ "type": "Feature", "properties": { "ADDRESS": "Москва, проспект Ленинский, д. 89\/2", "ORIGINAL_LAT": 55.677935569044777, "ORIGINAL_LNG": 37.5316215, "LABEL": "Ленинский проспект 89\/2, Москва, Россия, 119313", "COUNTRY": "Россия", "ADMIN3": "Москва", "CITY": "Москва", "POSTALCODE": "119313", "LAT": 55.67725, "LNG": 37.53147, "ACCESS_LAT": 55.67733, "ACCESS_LNG": 37.5316, "RESULT_TYPE": "houseNumber", "HOUSE_NUMBER_TYPE": "PA", "QUERY_SCORE": 1.0, "CITY_SCORE": 1.0, "STREET_SCORE": 1.0, "HOUSE_NUMBER_SCORE": 1.0, "distances": 77.0 }, "geometry": { "type": "LineString", "coordinates": [ [ 37.531621499999943, 55.677935569044777 ], [ 37.53147, 55.67725 ] ] } },
{ "type": "Feature", "properties": { "ADDRESS": "Москва, п. Северный, Дмитровское шоссе, д. 165Д, корп. 6", "ORIGINAL_LAT": 55.923513068811175, "ORIGINAL_LNG": 37.5432275, "LABEL": "Дмитровское шоссе 165д, Москва, Россия, 127495", "COUNTRY": "Россия", "ADMIN3": "Москва", "CITY": "Москва", "POSTALCODE": "127495", "LAT": 55.92711, "LNG": 37.54568, "ACCESS_LAT": 55.92708, "ACCESS_LNG": 37.54592, "RESULT_TYPE": "houseNumber", "HOUSE_NUMBER_TYPE": "interpolated", "QUERY_SCORE": 0.82, "CITY_SCORE": 1.0, "STREET_SCORE": 1.0, "HOUSE_NUMBER_SCORE": 1.0, "distances": 429.0 }, "geometry": { "type": "LineString", "coordinates": [ [ 37.543227499999958, 55.923513068811175 ], [ 37.54568, 55.92711 ] ] } },
{ "type": "Feature", "properties": { "ADDRESS": "Москва, ул. Планерная, д. 3, корп. 1", "ORIGINAL_LAT": 55.860009068886789, "ORIGINAL_LNG": 37.432663, "LABEL": "Планерная улица 3 корп 1, Москва, Россия, 125480", "COUNTRY": "Россия", "ADMIN3": "Москва", "CITY": "Москва", "POSTALCODE": "125480", "LAT": 55.86002, "LNG": 37.43271, "ACCESS_LAT": 55.86011, "ACCESS_LNG": 37.43249, "RESULT_TYPE": "houseNumber", "HOUSE_NUMBER_TYPE": "PA", "QUERY_SCORE": 1.0, "CITY_SCORE": 1.0, "STREET_SCORE": 1.0, "HOUSE_NUMBER_SCORE": 1.0, "distances": 3.0 }, "geometry": { "type": "LineString", "coordinates": [ [ 37.432663, 55.860009068886789 ], [ 37.43271, 55.86002 ] ] } },
{ "type": "Feature", "properties": { "ADDRESS": "Москва, ул. Большая Черкизовская, д. 3, корп. 2", "ORIGINAL_LAT": 55.79788256893589, "ORIGINAL_LNG": 37.7166835, "LABEL": "Большая Черкизовская улица 3 корп 2, Москва, Россия, 107061", "COUNTRY": "Россия", "ADMIN3": "Москва", "CITY": "Москва", "POSTALCODE": "107061", "LAT": 55.79792, "LNG": 37.71675, "ACCESS_LAT": 55.79804, "ACCESS_LNG": 37.71648, "RESULT_TYPE": "houseNumber", "HOUSE_NUMBER_TYPE": "PA", "QUERY_SCORE": 1.0, "CITY_SCORE": 1.0, "STREET_SCORE": 1.0, "HOUSE_NUMBER_SCORE": 1.0, "distances": 6.0 }, "geometry": { "type": "LineString", "coordinates": [ [ 37.716683499999967, 55.79788256893589 ], [ 37.71675, 55.79792 ] ] } },
{ "type": "Feature", "properties": { "ADDRESS": "Москва, п. Внуковское, ул. Корнея Чуковского, д. 1 ", "ORIGINAL_LAT": 55.635899069085632, "ORIGINAL_LNG": 37.329788, "LABEL": "улица Корнея Чуковского 1, Москва, Россия, 142784", "COUNTRY": "Россия", "ADMIN3": "Москва", "CITY": "Москва", "POSTALCODE": "142784", "LAT": 55.63596, "LNG": 37.32981, "ACCESS_LAT": 55.63606, "ACCESS_LNG": 37.32998, "RESULT_TYPE": "houseNumber", "HOUSE_NUMBER_TYPE": "PA", "QUERY_SCORE": 0.7, "CITY_SCORE": 1.0, "STREET_SCORE": 1.0, "HOUSE_NUMBER_SCORE": 1.0, "distances": 7.0 }, "geometry": { "type": "LineString", "coordinates": [ [ 37.329788, 55.635899069085632 ], [ 37.32981, 55.63596 ] ] } },
{ "type": "Feature", "properties": { "ADDRESS": "Москва, п. Внуковское, ул. Лётчика Грицевца, д. 6", "ORIGINAL_LAT": 55.622736069111305, "ORIGINAL_LNG": 37.304815, "LABEL": "улица Лётчика Грицевца 6, Москва, Россия, 142750", "COUNTRY": "Россия", "ADMIN3": "Москва", "CITY": "Москва", "POSTALCODE": "142750", "LAT": 55.62277, "LNG": 37.30475, "ACCESS_LAT": 55.623, "ACCESS_LNG": 37.3046, "RESULT_TYPE": "houseNumber", "HOUSE_NUMBER_TYPE": "PA", "QUERY_SCORE": 0.64, "CITY_SCORE": 1.0, "STREET_SCORE": 0.88, "HOUSE_NUMBER_SCORE": 1.0, "distances": 6.0 }, "geometry": { "type": "LineString", "coordinates": [ [ 37.304815, 55.622736069111305 ], [ 37.30475, 55.62277 ] ] } },
{ "type": "Feature", "properties": { "ADDRESS": "Москва, Рязанский проспект, д. 38", "ORIGINAL_LAT": 55.717325, "ORIGINAL_LNG": 37.78844, "LABEL": "Рязанский проспект 38, Москва, Россия, 109377", "COUNTRY": "Россия", "ADMIN3": "Москва", "CITY": "Москва", "POSTALCODE": "109377", "LAT": 55.7172, "LNG": 37.78843, "ACCESS_LAT": 55.7172, "ACCESS_LNG": 37.78869, "RESULT_TYPE": "houseNumber", "HOUSE_NUMBER_TYPE": "PA", "QUERY_SCORE": 1.0, "CITY_SCORE": 1.0, "STREET_SCORE": 1.0, "HOUSE_NUMBER_SCORE": 1.0, "distances": 14.0 }, "geometry": { "type": "LineString", "coordinates": [ [ 37.78844, 55.717325 ], [ 37.78843, 55.7172 ] ] } },
{ "type": "Feature", "properties": { "ADDRESS": "Москва, ул. Малая Юшуньская, д. 3", "ORIGINAL_LAT": 55.65512545, "ORIGINAL_LNG": 37.58995101, "LABEL": "Малая Юшуньская улица 3, Москва, Россия, 117303", "COUNTRY": "Россия", "ADMIN3": "Москва", "CITY": "Москва", "POSTALCODE": "117303", "LAT": 55.65476, "LNG": 37.59118, "ACCESS_LAT": 55.65492, "ACCESS_LNG": 37.59134, "RESULT_TYPE": "houseNumber", "HOUSE_NUMBER_TYPE": "PA", "QUERY_SCORE": 1.0, "CITY_SCORE": 1.0, "STREET_SCORE": 1.0, "HOUSE_NUMBER_SCORE": 1.0, "distances": 87.0 }, "geometry": { "type": "LineString", "coordinates": [ [ 37.58995101, 55.65512545 ], [ 37.59118, 55.65476 ] ] } },
{ "type": "Feature", "properties": { "ADDRESS": "Москва, ул. Ткацкая, д. 28\/14", "ORIGINAL_LAT": 55.786298068935913, "ORIGINAL_LNG": 37.733976, "LABEL": "Ткацкая улица 28\/14, Москва, Россия, 105187", "COUNTRY": "Россия", "ADMIN3": "Москва", "CITY": "Москва", "POSTALCODE": "105187", "LAT": 55.78632, "LNG": 37.73395, "ACCESS_LAT": 55.78662, "ACCESS_LNG": 37.73393, "RESULT_TYPE": "houseNumber", "HOUSE_NUMBER_TYPE": "PA", "QUERY_SCORE": 1.0, "CITY_SCORE": 1.0, "STREET_SCORE": 1.0, "HOUSE_NUMBER_SCORE": 1.0, "distances": 3.0 }, "geometry": { "type": "LineString", "coordinates": [ [ 37.733975999999892, 55.786298068935913 ], [ 37.73395, 55.78632 ] ] } },
{ "type": "Feature", "properties": { "ADDRESS": "Москва, ЖК Бунинские луга, ул. Александры Монаховой, д. 88, корп. 3  ", "ORIGINAL_LAT": 55.543860155751872, "ORIGINAL_LNG": 37.484813484130811, "LABEL": "Бунинские Луга, улица Александры Монаховой 94 корп 3, Москва, Россия, 117042", "COUNTRY": "Россия", "ADMIN3": "Москва", "CITY": "Москва", "POSTALCODE": "117042", "LAT": 55.54178, "LNG": 37.47925, "ACCESS_LAT": 55.54168, "ACCESS_LNG": 37.47883, "RESULT_TYPE": "place", "HOUSE_NUMBER_TYPE": null, "QUERY_SCORE": 0.93, "CITY_SCORE": 1.0, "STREET_SCORE": 1.0, "HOUSE_NUMBER_SCORE": 0.94, "distances": 421.0 }, "geometry": { "type": "LineString", "coordinates": [ [ 37.484813484130811, 55.543860155751872 ], [ 37.47925, 55.54178 ] ] } },
{ "type": "Feature", "properties": { "ADDRESS": "Москва, бульвар Яна Райниса, д. 31", "ORIGINAL_LAT": 55.8488169, "ORIGINAL_LNG": 37.4192554, "LABEL": "бульвар Яна Райниса 31, Москва, Россия, 125459", "COUNTRY": "Россия", "ADMIN3": "Москва", "CITY": "Москва", "POSTALCODE": "125459", "LAT": 55.84848, "LNG": 37.41909, "ACCESS_LAT": 55.8485, "ACCESS_LNG": 37.41935, "RESULT_TYPE": "houseNumber", "HOUSE_NUMBER_TYPE": "PA", "QUERY_SCORE": 1.0, "CITY_SCORE": 1.0, "STREET_SCORE": 1.0, "HOUSE_NUMBER_SCORE": 1.0, "distances": 39.0 }, "geometry": { "type": "LineString", "coordinates": [ [ 37.4192554, 55.8488169 ], [ 37.41909, 55.84848 ] ] } },
{ "type": "Feature", "properties": { "ADDRESS": "Москва, ул. Люблинская, д. 9, корп. 1", "ORIGINAL_LAT": 55.711601928687131, "ORIGINAL_LNG": 37.730624136828318, "LABEL": "Люблинская улица 9 корп 1, Москва, Россия, 109125", "COUNTRY": "Россия", "ADMIN3": "Москва", "CITY": "Москва", "POSTALCODE": "109125", "LAT": 55.71168, "LNG": 37.73072, "ACCESS_LAT": 55.71168, "ACCESS_LNG": 37.73093, "RESULT_TYPE": "houseNumber", "HOUSE_NUMBER_TYPE": "PA", "QUERY_SCORE": 1.0, "CITY_SCORE": 1.0, "STREET_SCORE": 1.0, "HOUSE_NUMBER_SCORE": 1.0, "distances": 11.0 }, "geometry": { "type": "LineString", "coordinates": [ [ 37.730624136828318, 55.711601928687131 ], [ 37.73072, 55.71168 ] ] } },
{ "type": "Feature", "properties": { "ADDRESS": "Москва, ул. Поляны, д. 5А, корп. 1", "ORIGINAL_LAT": 55.555183069175655, "ORIGINAL_LNG": 37.5540075, "LABEL": "улица Поляны 5а, Москва, Россия, 117042", "COUNTRY": "Россия", "ADMIN3": "Москва", "CITY": "Москва", "POSTALCODE": "117042", "LAT": 55.55792, "LNG": 37.55444, "ACCESS_LAT": 55.55795, "ACCESS_LNG": 37.5542, "RESULT_TYPE": "houseNumber", "HOUSE_NUMBER_TYPE": "interpolated", "QUERY_SCORE": 0.73, "CITY_SCORE": 1.0, "STREET_SCORE": 1.0, "HOUSE_NUMBER_SCORE": 1.0, "distances": 306.0 }, "geometry": { "type": "LineString", "coordinates": [ [ 37.554007499999912, 55.555183069175655 ], [ 37.55444, 55.55792 ] ] } },
{ "type": "Feature", "properties": { "ADDRESS": "Москва, Комсомольский проспект, д. 28", "ORIGINAL_LAT": 55.72687706902164, "ORIGINAL_LNG": 37.5796455, "LABEL": "Комсомольский проспект 28, Москва, Россия, 119146", "COUNTRY": "Россия", "ADMIN3": "Москва", "CITY": "Москва", "POSTALCODE": "119146", "LAT": 55.72702, "LNG": 37.57969, "ACCESS_LAT": 55.72667, "ACCESS_LNG": 37.58046, "RESULT_TYPE": "houseNumber", "HOUSE_NUMBER_TYPE": "PA", "QUERY_SCORE": 1.0, "CITY_SCORE": 1.0, "STREET_SCORE": 1.0, "HOUSE_NUMBER_SCORE": 1.0, "distances": 16.0 }, "geometry": { "type": "LineString", "coordinates": [ [ 37.5796455, 55.72687706902164 ], [ 37.57969, 55.72702 ] ] } },
{ "type": "Feature", "properties": { "ADDRESS": "Москва, ул. Бирюлевская, д. 1, корп. 1", "ORIGINAL_LAT": 55.601950569147149, "ORIGINAL_LNG": 37.664752, "LABEL": "Бирюлёвская улица 1 корп 1, Москва, Россия, 115404", "COUNTRY": "Россия", "ADMIN3": "Москва", "CITY": "Москва", "POSTALCODE": "115404", "LAT": 55.60194, "LNG": 37.66495, "ACCESS_LAT": 55.60224, "ACCESS_LNG": 37.66518, "RESULT_TYPE": "houseNumber", "HOUSE_NUMBER_TYPE": "PA", "QUERY_SCORE": 1.0, "CITY_SCORE": 1.0, "STREET_SCORE": 1.0, "HOUSE_NUMBER_SCORE": 1.0, "distances": 13.0 }, "geometry": { "type": "LineString", "coordinates": [ [ 37.664752, 55.601950569147149 ], [ 37.66495, 55.60194 ] ] } },
{ "type": "Feature", "properties": { "ADDRESS": "Москва, ул. Барышевская Роща, д.1", "ORIGINAL_LAT": 55.500315069212988, "ORIGINAL_LNG": 37.5411975, "LABEL": "улица Барышевская Роща 1, Москва, Россия, 108851", "COUNTRY": "Россия", "ADMIN3": "Москва", "CITY": "Москва", "POSTALCODE": "108851", "LAT": 55.50029, "LNG": 37.54114, "ACCESS_LAT": 55.5003, "ACCESS_LNG": 37.54149, "RESULT_TYPE": "houseNumber", "HOUSE_NUMBER_TYPE": "PA", "QUERY_SCORE": 1.0, "CITY_SCORE": 1.0, "STREET_SCORE": 1.0, "HOUSE_NUMBER_SCORE": 1.0, "distances": 5.0 }, "geometry": { "type": "LineString", "coordinates": [ [ 37.541197499999917, 55.500315069212988 ], [ 37.54114, 55.50029 ] ] } },
{ "type": "Feature", "properties": { "ADDRESS": "Москва, ул. Новогиреевская, д. 3а", "ORIGINAL_LAT": 55.762779655893993, "ORIGINAL_LNG": 37.794807392607687, "LABEL": "Новогиреевская улица 3А, Москва, Россия, 111123", "COUNTRY": "Россия", "ADMIN3": "Москва", "CITY": "Москва", "POSTALCODE": "111123", "LAT": 55.76277, "LNG": 37.79499, "ACCESS_LAT": 55.76245, "ACCESS_LNG": 37.79507, "RESULT_TYPE": "houseNumber", "HOUSE_NUMBER_TYPE": "PA", "QUERY_SCORE": 1.0, "CITY_SCORE": 1.0, "STREET_SCORE": 1.0, "HOUSE_NUMBER_SCORE": 1.0, "distances": 12.0 }, "geometry": { "type": "LineString", "coordinates": [ [ 37.794807392607687, 55.762779655893993 ], [ 37.79499, 55.76277 ] ] } },
{ "type": "Feature", "properties": { "ADDRESS": "Москва, Ленинский проспект, д. 111 корп. 1", "ORIGINAL_LAT": 55.661557, "ORIGINAL_LNG": 37.509343, "LABEL": "Ленинский проспект 111 корп 1, Москва, Россия, 119421", "COUNTRY": "Россия", "ADMIN3": "Москва", "CITY": "Москва", "POSTALCODE": "119421", "LAT": 55.66131, "LNG": 37.50938, "ACCESS_LAT": 55.66144, "ACCESS_LNG": 37.50889, "RESULT_TYPE": "houseNumber", "HOUSE_NUMBER_TYPE": "PA", "QUERY_SCORE": 1.0, "CITY_SCORE": 1.0, "STREET_SCORE": 1.0, "HOUSE_NUMBER_SCORE": 1.0, "distances": 28.0 }, "geometry": { "type": "LineString", "coordinates": [ [ 37.509343, 55.661557 ], [ 37.50938, 55.66131 ] ] } },
{ "type": "Feature", "properties": { "ADDRESS": "Москва, Проспект Мира, д. 114", "ORIGINAL_LAT": 55.808511, "ORIGINAL_LNG": 37.6378979, "LABEL": "проспект Мира 114, Москва, Россия, 129626", "COUNTRY": "Россия", "ADMIN3": "Москва", "CITY": "Москва", "POSTALCODE": "129626", "LAT": 55.80844, "LNG": 37.63789, "ACCESS_LAT": 55.80846, "ACCESS_LNG": 37.63739, "RESULT_TYPE": "houseNumber", "HOUSE_NUMBER_TYPE": "PA", "QUERY_SCORE": 1.0, "CITY_SCORE": 1.0, "STREET_SCORE": 1.0, "HOUSE_NUMBER_SCORE": 1.0, "distances": 8.0 }, "geometry": { "type": "LineString", "coordinates": [ [ 37.6378979, 55.808511 ], [ 37.63789, 55.80844 ] ] } },
{ "type": "Feature", "properties": { "ADDRESS": "Москва, ул. Лескова, д. 5", "ORIGINAL_LAT": 55.898699568836975, "ORIGINAL_LNG": 37.593731, "LABEL": "улица Лескова 5, Москва, Россия, 127349", "COUNTRY": "Россия", "ADMIN3": "Москва", "CITY": "Москва", "POSTALCODE": "127349", "LAT": 55.89867, "LNG": 37.59362, "ACCESS_LAT": 55.89884, "ACCESS_LNG": 37.59346, "RESULT_TYPE": "houseNumber", "HOUSE_NUMBER_TYPE": "PA", "QUERY_SCORE": 1.0, "CITY_SCORE": 1.0, "STREET_SCORE": 1.0, "HOUSE_NUMBER_SCORE": 1.0, "distances": 8.0 }, "geometry": { "type": "LineString", "coordinates": [ [ 37.593731, 55.898699568836975 ], [ 37.59362, 55.89867 ] ] } },
{ "type": "Feature", "properties": { "ADDRESS": "Москва, Ленинградский проспект, д. 66", "ORIGINAL_LAT": 55.802725068918527, "ORIGINAL_LNG": 37.52598, "LABEL": "Ленинградский проспект 66, Москва, Россия, 125315", "COUNTRY": "Россия", "ADMIN3": "Москва", "CITY": "Москва", "POSTALCODE": "125315", "LAT": 55.80289, "LNG": 37.52544, "ACCESS_LAT": 55.80297, "ACCESS_LNG": 37.52567, "RESULT_TYPE": "houseNumber", "HOUSE_NUMBER_TYPE": "PA", "QUERY_SCORE": 1.0, "CITY_SCORE": 1.0, "STREET_SCORE": 1.0, "HOUSE_NUMBER_SCORE": 1.0, "distances": 39.0 }, "geometry": { "type": "LineString", "coordinates": [ [ 37.52598, 55.802725068918527 ], [ 37.52544, 55.80289 ] ] } },
{ "type": "Feature", "properties": { "ADDRESS": "Москва, ул. Менжинского, д. 29", "ORIGINAL_LAT": 55.87039, "ORIGINAL_LNG": 37.656029, "LABEL": "улица Менжинского 29, Москва, Россия, 129327", "COUNTRY": "Россия", "ADMIN3": "Москва", "CITY": "Москва", "POSTALCODE": "129327", "LAT": 55.87039, "LNG": 37.65606, "ACCESS_LAT": 55.87023, "ACCESS_LNG": 37.65601, "RESULT_TYPE": "houseNumber", "HOUSE_NUMBER_TYPE": "PA", "QUERY_SCORE": 1.0, "CITY_SCORE": 1.0, "STREET_SCORE": 1.0, "HOUSE_NUMBER_SCORE": 1.0, "distances": 2.0 }, "geometry": { "type": "LineString", "coordinates": [ [ 37.656029, 55.87039 ], [ 37.65606, 55.87039 ] ] } },
{ "type": "Feature", "properties": { "ADDRESS": "Москва, ул. 3-я Филёвская, д. 8, корп. 2", "ORIGINAL_LAT": 55.739819, "ORIGINAL_LNG": 37.499884, "LABEL": "3-я Филёвская улица 8 корп 2, Москва, Россия, 121096", "COUNTRY": "Россия", "ADMIN3": "Москва", "CITY": "Москва", "POSTALCODE": "121096", "LAT": 55.73987, "LNG": 37.49994, "ACCESS_LAT": 55.73992, "ACCESS_LNG": 37.50017, "RESULT_TYPE": "houseNumber", "HOUSE_NUMBER_TYPE": "PA", "QUERY_SCORE": 0.92, "CITY_SCORE": 1.0, "STREET_SCORE": 0.84, "HOUSE_NUMBER_SCORE": 1.0, "distances": 7.0 }, "geometry": { "type": "LineString", "coordinates": [ [ 37.499884, 55.739819 ], [ 37.49994, 55.73987 ] ] } },
{ "type": "Feature", "properties": { "ADDRESS": "Москва, Хорошевское шоссе, д. 22", "ORIGINAL_LAT": 55.7746039, "ORIGINAL_LNG": 37.5432379, "LABEL": "Хорошёвское шоссе 22, Москва, Россия, 125284", "COUNTRY": "Россия", "ADMIN3": "Москва", "CITY": "Москва", "POSTALCODE": "125284", "LAT": 55.77453, "LNG": 37.54335, "ACCESS_LAT": 55.77462, "ACCESS_LNG": 37.54341, "RESULT_TYPE": "houseNumber", "HOUSE_NUMBER_TYPE": "PA", "QUERY_SCORE": 1.0, "CITY_SCORE": 1.0, "STREET_SCORE": 1.0, "HOUSE_NUMBER_SCORE": 1.0, "distances": 11.0 }, "geometry": { "type": "LineString", "coordinates": [ [ 37.5432379, 55.7746039 ], [ 37.54335, 55.77453 ] ] } },
{ "type": "Feature", "properties": { "ADDRESS": "Москва, ул. Петрозаводская, д. 24, корп. 2", "ORIGINAL_LAT": 55.868167, "ORIGINAL_LNG": 37.494072, "LABEL": "Петрозаводская улица 24 корп 2, Москва, Россия, 125414", "COUNTRY": "Россия", "ADMIN3": "Москва", "CITY": "Москва", "POSTALCODE": "125414", "LAT": 55.86813, "LNG": 37.49408, "ACCESS_LAT": 55.8682, "ACCESS_LNG": 37.49439, "RESULT_TYPE": "houseNumber", "HOUSE_NUMBER_TYPE": "PA", "QUERY_SCORE": 1.0, "CITY_SCORE": 1.0, "STREET_SCORE": 1.0, "HOUSE_NUMBER_SCORE": 1.0, "distances": 4.0 }, "geometry": { "type": "LineString", "coordinates": [ [ 37.494072, 55.868167 ], [ 37.49408, 55.86813 ] ] } },
{ "type": "Feature", "properties": { "ADDRESS": "Москва, ул. Профсоюзная, д. 104", "ORIGINAL_LAT": 55.641920069101118, "ORIGINAL_LNG": 37.523456, "LABEL": "Профсоюзная улица 104, Москва, Россия, 117437", "COUNTRY": "Россия", "ADMIN3": "Москва", "CITY": "Москва", "POSTALCODE": "117437", "LAT": 55.64184, "LNG": 37.52353, "ACCESS_LAT": 55.64182, "ACCESS_LNG": 37.5232, "RESULT_TYPE": "houseNumber", "HOUSE_NUMBER_TYPE": "PA", "QUERY_SCORE": 1.0, "CITY_SCORE": 1.0, "STREET_SCORE": 1.0, "HOUSE_NUMBER_SCORE": 1.0, "distances": 10.0 }, "geometry": { "type": "LineString", "coordinates": [ [ 37.523456, 55.641920069101118 ], [ 37.52353, 55.64184 ] ] } },
{ "type": "Feature", "properties": { "ADDRESS": "Москва, ул. Липецкая, д. 48", "ORIGINAL_LAT": 55.581083, "ORIGINAL_LNG": 37.680886, "LABEL": "Липецкая улица 48, Москва, Россия, 115372", "COUNTRY": "Россия", "ADMIN3": "Москва", "CITY": "Москва", "POSTALCODE": "115372", "LAT": 55.58102, "LNG": 37.6809, "ACCESS_LAT": 55.58137, "ACCESS_LNG": 37.68071, "RESULT_TYPE": "houseNumber", "HOUSE_NUMBER_TYPE": "PA", "QUERY_SCORE": 1.0, "CITY_SCORE": 1.0, "STREET_SCORE": 1.0, "HOUSE_NUMBER_SCORE": 1.0, "distances": 7.0 }, "geometry": { "type": "LineString", "coordinates": [ [ 37.680886, 55.581083 ], [ 37.6809, 55.58102 ] ] } },
{ "type": "Feature", "properties": { "ADDRESS": "Москва, Перервинский бульвар, д. 1", "ORIGINAL_LAT": 55.663725, "ORIGINAL_LNG": 37.763899, "LABEL": "Перервинский бульвар 1, Москва, Россия, 109451", "COUNTRY": "Россия", "ADMIN3": "Москва", "CITY": "Москва", "POSTALCODE": "109451", "LAT": 55.66381, "LNG": 37.7639, "ACCESS_LAT": 55.6639, "ACCESS_LNG": 37.76411, "RESULT_TYPE": "houseNumber", "HOUSE_NUMBER_TYPE": "PA", "QUERY_SCORE": 1.0, "CITY_SCORE": 1.0, "STREET_SCORE": 1.0, "HOUSE_NUMBER_SCORE": 1.0, "distances": 9.0 }, "geometry": { "type": "LineString", "coordinates": [ [ 37.763899, 55.663725 ], [ 37.7639, 55.66381 ] ] } },
{ "type": "Feature", "properties": { "ADDRESS": "Москва, ул. Перерва, д. 49", "ORIGINAL_LAT": 55.660668069089752, "ORIGINAL_LNG": 37.749948, "LABEL": "улица Перерва 49, Москва, Россия, 109341", "COUNTRY": "Россия", "ADMIN3": "Москва", "CITY": "Москва", "POSTALCODE": "109341", "LAT": 55.66064, "LNG": 37.7499, "ACCESS_LAT": 55.66104, "ACCESS_LNG": 37.74968, "RESULT_TYPE": "houseNumber", "HOUSE_NUMBER_TYPE": "PA", "QUERY_SCORE": 1.0, "CITY_SCORE": 1.0, "STREET_SCORE": 1.0, "HOUSE_NUMBER_SCORE": 1.0, "distances": 4.0 }, "geometry": { "type": "LineString", "coordinates": [ [ 37.749948, 55.660668069089752 ], [ 37.7499, 55.66064 ] ] } },
{ "type": "Feature", "properties": { "ADDRESS": "Москва, ул. Ивантеевская, д. 32, корп. 3", "ORIGINAL_LAT": 55.814406068948557, "ORIGINAL_LNG": 37.730293, "LABEL": "Ивантеевская улица 32 корп 2, Москва, Россия, 107150", "COUNTRY": "Россия", "ADMIN3": "Москва", "CITY": "Москва", "POSTALCODE": "107150", "LAT": 55.81487, "LNG": 37.73103, "ACCESS_LAT": 55.81511, "ACCESS_LNG": 37.73096, "RESULT_TYPE": "houseNumber", "HOUSE_NUMBER_TYPE": "PA", "QUERY_SCORE": 0.99, "CITY_SCORE": 1.0, "STREET_SCORE": 1.0, "HOUSE_NUMBER_SCORE": 0.99, "distances": 69.0 }, "geometry": { "type": "LineString", "coordinates": [ [ 37.730293, 55.814406068948557 ], [ 37.73103, 55.81487 ] ] } },
{ "type": "Feature", "properties": { "ADDRESS": "Москва, ул. Южнобутовская, д. 80", "ORIGINAL_LAT": 55.534352, "ORIGINAL_LNG": 37.517536, "LABEL": "Южнобутовская улица 80, Москва, Россия, 117042", "COUNTRY": "Россия", "ADMIN3": "Москва", "CITY": "Москва", "POSTALCODE": "117042", "LAT": 55.53442, "LNG": 37.51762, "ACCESS_LAT": 55.53457, "ACCESS_LNG": 37.51756, "RESULT_TYPE": "houseNumber", "HOUSE_NUMBER_TYPE": "PA", "QUERY_SCORE": 1.0, "CITY_SCORE": 1.0, "STREET_SCORE": 1.0, "HOUSE_NUMBER_SCORE": 1.0, "distances": 9.0 }, "geometry": { "type": "LineString", "coordinates": [ [ 37.517536, 55.534352 ], [ 37.51762, 55.53442 ] ] } },
{ "type": "Feature", "properties": { "ADDRESS": "Москва, Варшавское шоссе, д. 76, корп. 2", "ORIGINAL_LAT": 55.654493, "ORIGINAL_LNG": 37.617878, "LABEL": "Варшавское шоссе 76 корп 2, Москва, Россия, 117556", "COUNTRY": "Россия", "ADMIN3": "Москва", "CITY": "Москва", "POSTALCODE": "117556", "LAT": 55.65449, "LNG": 37.61789, "ACCESS_LAT": 55.65449, "ACCESS_LNG": 37.61807, "RESULT_TYPE": "houseNumber", "HOUSE_NUMBER_TYPE": "PA", "QUERY_SCORE": 1.0, "CITY_SCORE": 1.0, "STREET_SCORE": 1.0, "HOUSE_NUMBER_SCORE": 1.0, "distances": 1.0 }, "geometry": { "type": "LineString", "coordinates": [ [ 37.617878, 55.654493 ], [ 37.61789, 55.65449 ] ] } },
{ "type": "Feature", "properties": { "ADDRESS": "Москва, ул. Ярославская, д. 15, стр. 2", "ORIGINAL_LAT": 55.819984, "ORIGINAL_LNG": 37.647113, "LABEL": "Ярославская улица 14 стр 3, Москва, Россия, 129301", "COUNTRY": "Россия", "ADMIN3": "Москва", "CITY": "Москва", "POSTALCODE": "129301", "LAT": 55.82354, "LNG": 37.65208, "ACCESS_LAT": 55.82347, "ACCESS_LNG": 37.65228, "RESULT_TYPE": "houseNumber", "HOUSE_NUMBER_TYPE": "PA", "QUERY_SCORE": 0.98, "CITY_SCORE": 1.0, "STREET_SCORE": 1.0, "HOUSE_NUMBER_SCORE": 0.98, "distances": 504.0 }, "geometry": { "type": "LineString", "coordinates": [ [ 37.647113, 55.819984 ], [ 37.65208, 55.82354 ] ] } },
{ "type": "Feature", "properties": { "ADDRESS": "Москва, ул. Дубнинская, д. 27, корп. 1", "ORIGINAL_LAT": 55.863707, "ORIGINAL_LNG": 37.565003, "LABEL": "Дубнинская улица 27 корп 1, Москва, Россия, 127474", "COUNTRY": "Россия", "ADMIN3": "Москва", "CITY": "Москва", "POSTALCODE": "127474", "LAT": 55.86375, "LNG": 37.56515, "ACCESS_LAT": 55.8639, "ACCESS_LNG": 37.56506, "RESULT_TYPE": "houseNumber", "HOUSE_NUMBER_TYPE": "PA", "QUERY_SCORE": 1.0, "CITY_SCORE": 1.0, "STREET_SCORE": 1.0, "HOUSE_NUMBER_SCORE": 1.0, "distances": 10.0 }, "geometry": { "type": "LineString", "coordinates": [ [ 37.565003, 55.863707 ], [ 37.56515, 55.86375 ] ] } },
{ "type": "Feature", "properties": { "ADDRESS": "Москва, Ленинградское шоссе, д. 13, корп. 1", "ORIGINAL_LAT": 55.818684, "ORIGINAL_LNG": 37.497153, "LABEL": "Ленинградское шоссе 13 корп 1, Москва, Россия, 125171", "COUNTRY": "Россия", "ADMIN3": "Москва", "CITY": "Москва", "POSTALCODE": "125171", "LAT": 55.81873, "LNG": 37.49713, "ACCESS_LAT": 55.81865, "ACCESS_LNG": 37.49683, "RESULT_TYPE": "houseNumber", "HOUSE_NUMBER_TYPE": "PA", "QUERY_SCORE": 1.0, "CITY_SCORE": 1.0, "STREET_SCORE": 1.0, "HOUSE_NUMBER_SCORE": 1.0, "distances": 5.0 }, "geometry": { "type": "LineString", "coordinates": [ [ 37.497153, 55.818684 ], [ 37.49713, 55.81873 ] ] } },
{ "type": "Feature", "properties": { "ADDRESS": "Москва, ул. Большая Академическая, д. 39", "ORIGINAL_LAT": 55.832908, "ORIGINAL_LNG": 37.532334, "LABEL": "Большая Академическая улица 39, Москва, Россия, 125008", "COUNTRY": "Россия", "ADMIN3": "Москва", "CITY": "Москва", "POSTALCODE": "125008", "LAT": 55.83289, "LNG": 37.5323, "ACCESS_LAT": 55.83286, "ACCESS_LNG": 37.5325, "RESULT_TYPE": "houseNumber", "HOUSE_NUMBER_TYPE": "PA", "QUERY_SCORE": 1.0, "CITY_SCORE": 1.0, "STREET_SCORE": 1.0, "HOUSE_NUMBER_SCORE": 1.0, "distances": 3.0 }, "geometry": { "type": "LineString", "coordinates": [ [ 37.532334, 55.832908 ], [ 37.5323, 55.83289 ] ] } },
{ "type": "Feature", "properties": { "ADDRESS": "Москва, Новотушинский проезд, д. 6, корп. 1", "ORIGINAL_LAT": 55.837029568917259, "ORIGINAL_LNG": 37.383193, "LABEL": "Новотушинский проезд 6 корп 1, Москва, Россия, 125464", "COUNTRY": "Россия", "ADMIN3": "Москва", "CITY": "Москва", "POSTALCODE": "125464", "LAT": 55.8373, "LNG": 37.38277, "ACCESS_LAT": 55.83745, "ACCESS_LNG": 37.38294, "RESULT_TYPE": "houseNumber", "HOUSE_NUMBER_TYPE": "PA", "QUERY_SCORE": 1.0, "CITY_SCORE": 1.0, "STREET_SCORE": 1.0, "HOUSE_NUMBER_SCORE": 1.0, "distances": 40.0 }, "geometry": { "type": "LineString", "coordinates": [ [ 37.383193, 55.837029568917259 ], [ 37.38277, 55.8373 ] ] } },
{ "type": "Feature", "properties": { "ADDRESS": "Москва, ул. Школьная, д. 1, корп. 1", "ORIGINAL_LAT": 55.52064506920582, "ORIGINAL_LNG": 37.2161155, "LABEL": "Школьная улица 1 корп 1, Москва, Россия, 143396", "COUNTRY": "Россия", "ADMIN3": "Москва", "CITY": "Москва", "POSTALCODE": "143396", "LAT": 55.52073, "LNG": 37.21608, "ACCESS_LAT": 55.52072, "ACCESS_LNG": 37.21575, "RESULT_TYPE": "houseNumber", "HOUSE_NUMBER_TYPE": "PA", "QUERY_SCORE": 1.0, "CITY_SCORE": 1.0, "STREET_SCORE": 1.0, "HOUSE_NUMBER_SCORE": 1.0, "distances": 10.0 }, "geometry": { "type": "LineString", "coordinates": [ [ 37.216115499999923, 55.52064506920582 ], [ 37.21608, 55.52073 ] ] } },
{ "type": "Feature", "properties": { "ADDRESS": "Москва, ул. Верхняя Масловка, д. 29", "ORIGINAL_LAT": 55.798759, "ORIGINAL_LNG": 37.5568319, "LABEL": "улица Верхняя Масловка 29, Москва, Россия, 127083", "COUNTRY": "Россия", "ADMIN3": "Москва", "CITY": "Москва", "POSTALCODE": "127083", "LAT": 55.79883, "LNG": 37.55708, "ACCESS_LAT": 55.79873, "ACCESS_LNG": 37.55716, "RESULT_TYPE": "houseNumber", "HOUSE_NUMBER_TYPE": "PA", "QUERY_SCORE": 1.0, "CITY_SCORE": 1.0, "STREET_SCORE": 1.0, "HOUSE_NUMBER_SCORE": 1.0, "distances": 17.0 }, "geometry": { "type": "LineString", "coordinates": [ [ 37.5568319, 55.798759 ], [ 37.55708, 55.79883 ] ] } },
{ "type": "Feature", "properties": { "ADDRESS": "Москва, ул. Люсиновская, д. 36\/50", "ORIGINAL_LAT": 55.722294069009848, "ORIGINAL_LNG": 37.621534, "LABEL": "Люсиновская улица 36\/50, Москва, Россия, 115093", "COUNTRY": "Россия", "ADMIN3": "Москва", "CITY": "Москва", "POSTALCODE": "115093", "LAT": 55.72231, "LNG": 37.62156, "ACCESS_LAT": 55.72231, "ACCESS_LNG": 37.62136, "RESULT_TYPE": "houseNumber", "HOUSE_NUMBER_TYPE": "PA", "QUERY_SCORE": 1.0, "CITY_SCORE": 1.0, "STREET_SCORE": 1.0, "HOUSE_NUMBER_SCORE": 1.0, "distances": 2.0 }, "geometry": { "type": "LineString", "coordinates": [ [ 37.621534, 55.722294069009848 ], [ 37.62156, 55.72231 ] ] } },
{ "type": "Feature", "properties": { "ADDRESS": "Москва, ул. Генерала Белова, д. 28, корп. 1", "ORIGINAL_LAT": 55.605670228793308, "ORIGINAL_LNG": 37.724602652778565, "LABEL": "улица Генерала Белова 28 корп 1, Москва, Россия, 115583", "COUNTRY": "Россия", "ADMIN3": "Москва", "CITY": "Москва", "POSTALCODE": "115583", "LAT": 55.60531, "LNG": 37.72438, "ACCESS_LAT": 55.6053, "ACCESS_LNG": 37.72432, "RESULT_TYPE": "houseNumber", "HOUSE_NUMBER_TYPE": "PA", "QUERY_SCORE": 1.0, "CITY_SCORE": 1.0, "STREET_SCORE": 1.0, "HOUSE_NUMBER_SCORE": 1.0, "distances": 42.0 }, "geometry": { "type": "LineString", "coordinates": [ [ 37.724602652778565, 55.605670228793308 ], [ 37.72438, 55.60531 ] ] } },
{ "type": "Feature", "properties": { "ADDRESS": "Москва, ул. Трифоновская, д. 11", "ORIGINAL_LAT": 55.788884068942551, "ORIGINAL_LNG": 37.611841, "LABEL": "Трифоновская улица 11, Москва, Россия, 127018", "COUNTRY": "Россия", "ADMIN3": "Москва", "CITY": "Москва", "POSTALCODE": "127018", "LAT": 55.78892, "LNG": 37.61182, "ACCESS_LAT": 55.78871, "ACCESS_LNG": 37.61232, "RESULT_TYPE": "houseNumber", "HOUSE_NUMBER_TYPE": "PA", "QUERY_SCORE": 1.0, "CITY_SCORE": 1.0, "STREET_SCORE": 1.0, "HOUSE_NUMBER_SCORE": 1.0, "distances": 4.0 }, "geometry": { "type": "LineString", "coordinates": [ [ 37.611841, 55.788884068942551 ], [ 37.61182, 55.78892 ] ] } },
{ "type": "Feature", "properties": { "ADDRESS": "Москва, ул. Парковая 1-я, д. 11", "ORIGINAL_LAT": 55.7907959, "ORIGINAL_LNG": 37.7775669, "LABEL": "Парковая улица 11, Москва, Россия, 143397", "COUNTRY": "Россия", "ADMIN3": "Москва", "CITY": "Москва", "POSTALCODE": "143397", "LAT": 55.53535, "LNG": 37.15978, "ACCESS_LAT": 55.53521, "ACCESS_LNG": 37.15959, "RESULT_TYPE": "houseNumber", "HOUSE_NUMBER_TYPE": "PA", "QUERY_SCORE": 0.9, "CITY_SCORE": 1.0, "STREET_SCORE": 1.0, "HOUSE_NUMBER_SCORE": 1.0, "distances": 48171.0 }, "geometry": { "type": "LineString", "coordinates": [ [ 37.777566900000011, 55.7907959 ], [ 37.15978, 55.53535 ] ] } },
{ "type": "Feature", "properties": { "ADDRESS": "Москва, ул. Кантемировская, д. 29, корп. 2", "ORIGINAL_LAT": 55.6373644, "ORIGINAL_LNG": 37.6639064, "LABEL": "Кантемировская улица 29 корп 2, Москва, Россия, 115477", "COUNTRY": "Россия", "ADMIN3": "Москва", "CITY": "Москва", "POSTALCODE": "115477", "LAT": 55.63739, "LNG": 37.66366, "ACCESS_LAT": 55.63723, "ACCESS_LNG": 37.66363, "RESULT_TYPE": "houseNumber", "HOUSE_NUMBER_TYPE": "PA", "QUERY_SCORE": 1.0, "CITY_SCORE": 1.0, "STREET_SCORE": 1.0, "HOUSE_NUMBER_SCORE": 1.0, "distances": 16.0 }, "geometry": { "type": "LineString", "coordinates": [ [ 37.663906399999973, 55.6373644 ], [ 37.66366, 55.63739 ] ] } },
{ "type": "Feature", "properties": { "ADDRESS": "Москва, ул. Петра Романова, д. 6", "ORIGINAL_LAT": 55.708308069033457, "ORIGINAL_LNG": 37.68067, "LABEL": "улица Петра Романова 6, Москва, Россия, 115193", "COUNTRY": "Россия", "ADMIN3": "Москва", "CITY": "Москва", "POSTALCODE": "115193", "LAT": 55.70831, "LNG": 37.68068, "ACCESS_LAT": 55.70823, "ACCESS_LNG": 37.68047, "RESULT_TYPE": "houseNumber", "HOUSE_NUMBER_TYPE": "PA", "QUERY_SCORE": 1.0, "CITY_SCORE": 1.0, "STREET_SCORE": 1.0, "HOUSE_NUMBER_SCORE": 1.0, "distances": 1.0 }, "geometry": { "type": "LineString", "coordinates": [ [ 37.68067, 55.708308069033457 ], [ 37.68068, 55.70831 ] ] } },
{ "type": "Feature", "properties": { "ADDRESS": "Москва, проспект Андропова, д. 29", "ORIGINAL_LAT": 55.675687, "ORIGINAL_LNG": 37.664824, "LABEL": "проспект Андропова 29, Москва, Россия, 115487", "COUNTRY": "Россия", "ADMIN3": "Москва", "CITY": "Москва", "POSTALCODE": "115487", "LAT": 55.67569, "LNG": 37.66484, "ACCESS_LAT": 55.67577, "ACCESS_LNG": 37.66461, "RESULT_TYPE": "houseNumber", "HOUSE_NUMBER_TYPE": "PA", "QUERY_SCORE": 1.0, "CITY_SCORE": 1.0, "STREET_SCORE": 1.0, "HOUSE_NUMBER_SCORE": 1.0, "distances": 1.0 }, "geometry": { "type": "LineString", "coordinates": [ [ 37.664824, 55.675687 ], [ 37.66484, 55.67569 ] ] } },
{ "type": "Feature", "properties": { "ADDRESS": "Москва, ул. Коломенская, д. 12, корп. 2", "ORIGINAL_LAT": 55.68191144898524, "ORIGINAL_LNG": 37.695330973541225, "LABEL": "Коломенская улица 12 корп 2, Москва, Россия, 115142", "COUNTRY": "Россия", "ADMIN3": "Москва", "CITY": "Москва", "POSTALCODE": "115142", "LAT": 55.68141, "LNG": 37.6957, "ACCESS_LAT": 55.68161, "ACCESS_LNG": 37.69586, "RESULT_TYPE": "houseNumber", "HOUSE_NUMBER_TYPE": "PA", "QUERY_SCORE": 1.0, "CITY_SCORE": 1.0, "STREET_SCORE": 1.0, "HOUSE_NUMBER_SCORE": 1.0, "distances": 60.0 }, "geometry": { "type": "LineString", "coordinates": [ [ 37.695330973541225, 55.68191144898524 ], [ 37.6957, 55.68141 ] ] } },
{ "type": "Feature", "properties": { "ADDRESS": "Москва, ул. Липовый парк, д. 7, корп. 2", "ORIGINAL_LAT": 55.567622077141849, "ORIGINAL_LNG": 37.490162626983597, "LABEL": "улица Липовый парк 7 корп 2, Москва, Россия, 108814", "COUNTRY": "Россия", "ADMIN3": "Москва", "CITY": "Москва", "POSTALCODE": "108814", "LAT": 55.56749, "LNG": 37.49009, "ACCESS_LAT": 55.56764, "ACCESS_LNG": 37.48988, "RESULT_TYPE": "houseNumber", "HOUSE_NUMBER_TYPE": "PA", "QUERY_SCORE": 1.0, "CITY_SCORE": 1.0, "STREET_SCORE": 1.0, "HOUSE_NUMBER_SCORE": 1.0, "distances": 15.0 }, "geometry": { "type": "LineString", "coordinates": [ [ 37.490162626983597, 55.567622077141849 ], [ 37.49009, 55.56749 ] ] } },
{ "type": "Feature", "properties": { "ADDRESS": "Москва, ул. Русаковская, д. 1", "ORIGINAL_LAT": 55.78192, "ORIGINAL_LNG": 37.670158, "LABEL": "Русаковская улица 1, Москва, Россия, 107140", "COUNTRY": "Россия", "ADMIN3": "Москва", "CITY": "Москва", "POSTALCODE": "107140", "LAT": 55.78203, "LNG": 37.66944, "ACCESS_LAT": 55.78218, "ACCESS_LNG": 37.66952, "RESULT_TYPE": "houseNumber", "HOUSE_NUMBER_TYPE": "PA", "QUERY_SCORE": 1.0, "CITY_SCORE": 1.0, "STREET_SCORE": 1.0, "HOUSE_NUMBER_SCORE": 1.0, "distances": 47.0 }, "geometry": { "type": "LineString", "coordinates": [ [ 37.670158, 55.78192 ], [ 37.66944, 55.78203 ] ] } },
{ "type": "Feature", "properties": { "ADDRESS": "Москва, Осенний бульвар, д. 20, корп. 1", "ORIGINAL_LAT": 55.763639110682412, "ORIGINAL_LNG": 37.408054542327818, "LABEL": "Осенний бульвар 20 корп 1, Москва, Россия, 121614", "COUNTRY": "Россия", "ADMIN3": "Москва", "CITY": "Москва", "POSTALCODE": "121614", "LAT": 55.76312, "LNG": 37.40814, "ACCESS_LAT": 55.76313, "ACCESS_LNG": 37.4084, "RESULT_TYPE": "houseNumber", "HOUSE_NUMBER_TYPE": "PA", "QUERY_SCORE": 1.0, "CITY_SCORE": 1.0, "STREET_SCORE": 1.0, "HOUSE_NUMBER_SCORE": 1.0, "distances": 58.0 }, "geometry": { "type": "LineString", "coordinates": [ [ 37.408054542327818, 55.763639110682412 ], [ 37.40814, 55.76312 ] ] } },
{ "type": "Feature", "properties": { "ADDRESS": "Москва, ул. Юных Ленинцев, д. 59, корп. 1", "ORIGINAL_LAT": 55.701171069015203, "ORIGINAL_LNG": 37.762174, "LABEL": "улица Юных Ленинцев 59 корп 1, Москва, Россия, 109462", "COUNTRY": "Россия", "ADMIN3": "Москва", "CITY": "Москва", "POSTALCODE": "109462", "LAT": 55.70115, "LNG": 37.76211, "ACCESS_LAT": 55.7012, "ACCESS_LNG": 37.76189, "RESULT_TYPE": "houseNumber", "HOUSE_NUMBER_TYPE": "PA", "QUERY_SCORE": 1.0, "CITY_SCORE": 1.0, "STREET_SCORE": 1.0, "HOUSE_NUMBER_SCORE": 1.0, "distances": 5.0 }, "geometry": { "type": "LineString", "coordinates": [ [ 37.762174, 55.701171069015203 ], [ 37.76211, 55.70115 ] ] } },
{ "type": "Feature", "properties": { "ADDRESS": "Москва, ул. Молодогвардейская, д. 2, корп. 1", "ORIGINAL_LAT": 55.733901, "ORIGINAL_LNG": 37.442548, "LABEL": "Молодогвардейская улица 2 корп 1, Москва, Россия, 121467", "COUNTRY": "Россия", "ADMIN3": "Москва", "CITY": "Москва", "POSTALCODE": "121467", "LAT": 55.73392, "LNG": 37.44255, "ACCESS_LAT": 55.73385, "ACCESS_LNG": 37.44221, "RESULT_TYPE": "houseNumber", "HOUSE_NUMBER_TYPE": "PA", "QUERY_SCORE": 1.0, "CITY_SCORE": 1.0, "STREET_SCORE": 1.0, "HOUSE_NUMBER_SCORE": 1.0, "distances": 2.0 }, "geometry": { "type": "LineString", "coordinates": [ [ 37.442548, 55.733901 ], [ 37.44255, 55.73392 ] ] } },
{ "type": "Feature", "properties": { "ADDRESS": "Москва, Кутузовский проспект, д. 43", "ORIGINAL_LAT": 55.738145, "ORIGINAL_LNG": 37.528981, "LABEL": "Кутузовский проспект 43, Москва, Россия, 121170", "COUNTRY": "Россия", "ADMIN3": "Москва", "CITY": "Москва", "POSTALCODE": "121170", "LAT": 55.73813, "LNG": 37.5289, "ACCESS_LAT": 55.7383, "ACCESS_LNG": 37.52879, "RESULT_TYPE": "houseNumber", "HOUSE_NUMBER_TYPE": "PA", "QUERY_SCORE": 1.0, "CITY_SCORE": 1.0, "STREET_SCORE": 1.0, "HOUSE_NUMBER_SCORE": 1.0, "distances": 5.0 }, "geometry": { "type": "LineString", "coordinates": [ [ 37.528981, 55.738145 ], [ 37.5289, 55.73813 ] ] } },
{ "type": "Feature", "properties": { "ADDRESS": "Москва, ул. Дмитриевского, д. 23, корп. 1", "ORIGINAL_LAT": 55.71112806904079, "ORIGINAL_LNG": 37.8968945, "LABEL": "улица Дмитриевского 23 корп 1, Москва, Россия, 111675", "COUNTRY": "Россия", "ADMIN3": "Москва", "CITY": "Москва", "POSTALCODE": "111675", "LAT": 55.71123, "LNG": 37.89691, "ACCESS_LAT": 55.71124, "ACCESS_LNG": 37.89676, "RESULT_TYPE": "houseNumber", "HOUSE_NUMBER_TYPE": "PA", "QUERY_SCORE": 1.0, "CITY_SCORE": 1.0, "STREET_SCORE": 1.0, "HOUSE_NUMBER_SCORE": 1.0, "distances": 11.0 }, "geometry": { "type": "LineString", "coordinates": [ [ 37.896894499999981, 55.71112806904079 ], [ 37.89691, 55.71123 ] ] } },
{ "type": "Feature", "properties": { "ADDRESS": "Москва,  ул. Краснодарская, д. 57, корп. 2", "ORIGINAL_LAT": 55.676630569041421, "ORIGINAL_LNG": 37.768633, "LABEL": "Краснодарская улица 57 корп 2, Москва, Россия, 109559", "COUNTRY": "Россия", "ADMIN3": "Москва", "CITY": "Москва", "POSTALCODE": "109559", "LAT": 55.67662, "LNG": 37.76864, "ACCESS_LAT": 55.67646, "ACCESS_LNG": 37.76861, "RESULT_TYPE": "houseNumber", "HOUSE_NUMBER_TYPE": "PA", "QUERY_SCORE": 1.0, "CITY_SCORE": 1.0, "STREET_SCORE": 1.0, "HOUSE_NUMBER_SCORE": 1.0, "distances": 1.0 }, "geometry": { "type": "LineString", "coordinates": [ [ 37.768633, 55.676630569041421 ], [ 37.76864, 55.67662 ] ] } },
{ "type": "Feature", "properties": { "ADDRESS": "Москва, ул. Донецкая, д. 30, корп. 1", "ORIGINAL_LAT": 55.645476569080451, "ORIGINAL_LNG": 37.7072155, "LABEL": "Донецкая улица 30 корп 1, Москва, Россия, 109651", "COUNTRY": "Россия", "ADMIN3": "Москва", "CITY": "Москва", "POSTALCODE": "109651", "LAT": 55.64519, "LNG": 37.70678, "ACCESS_LAT": 55.64507, "ACCESS_LNG": 37.70706, "RESULT_TYPE": "houseNumber", "HOUSE_NUMBER_TYPE": "PA", "QUERY_SCORE": 1.0, "CITY_SCORE": 1.0, "STREET_SCORE": 1.0, "HOUSE_NUMBER_SCORE": 1.0, "distances": 42.0 }, "geometry": { "type": "LineString", "coordinates": [ [ 37.70721549999994, 55.645476569080451 ], [ 37.70678, 55.64519 ] ] } },
{ "type": "Feature", "properties": { "ADDRESS": "Москва, ул. Грекова, д. 14, корп. 1", "ORIGINAL_LAT": 55.889815276629342, "ORIGINAL_LNG": 37.6633235, "LABEL": "улица Грекова 14 корп 1, Москва, Россия, 127224", "COUNTRY": "Россия", "ADMIN3": "Москва", "CITY": "Москва", "POSTALCODE": "127224", "LAT": 55.88985, "LNG": 37.66323, "ACCESS_LAT": 55.88965, "ACCESS_LNG": 37.66323, "RESULT_TYPE": "houseNumber", "HOUSE_NUMBER_TYPE": "PA", "QUERY_SCORE": 1.0, "CITY_SCORE": 1.0, "STREET_SCORE": 1.0, "HOUSE_NUMBER_SCORE": 1.0, "distances": 7.0 }, "geometry": { "type": "LineString", "coordinates": [ [ 37.663323499999969, 55.889815276629342 ], [ 37.66323, 55.88985 ] ] } },
{ "type": "Feature", "properties": { "ADDRESS": "Москва, ул. Новослободская, д. 31, стр. 1", "ORIGINAL_LAT": 55.781955, "ORIGINAL_LNG": 37.597836, "LABEL": "Новослободская улица 31 стр 1, Москва, Россия, 127055", "COUNTRY": "Россия", "ADMIN3": "Москва", "CITY": "Москва", "POSTALCODE": "127055", "LAT": 55.78195, "LNG": 37.59777, "ACCESS_LAT": 55.78206, "ACCESS_LNG": 37.59768, "RESULT_TYPE": "houseNumber", "HOUSE_NUMBER_TYPE": "PA", "QUERY_SCORE": 1.0, "CITY_SCORE": 1.0, "STREET_SCORE": 1.0, "HOUSE_NUMBER_SCORE": 1.0, "distances": 4.0 }, "geometry": { "type": "LineString", "coordinates": [ [ 37.597836, 55.781955 ], [ 37.59777, 55.78195 ] ] } },
{ "type": "Feature", "properties": { "ADDRESS": "Москва, ул. Озерная, д. 2, корп. 2", "ORIGINAL_LAT": 55.689076, "ORIGINAL_LNG": 37.4700159, "LABEL": "Озёрная улица 2 корп 2, Москва, Россия, 119361", "COUNTRY": "Россия", "ADMIN3": "Москва", "CITY": "Москва", "POSTALCODE": "119361", "LAT": 55.68906, "LNG": 37.47004, "ACCESS_LAT": 55.68911, "ACCESS_LNG": 37.46957, "RESULT_TYPE": "houseNumber", "HOUSE_NUMBER_TYPE": "PA", "QUERY_SCORE": 1.0, "CITY_SCORE": 1.0, "STREET_SCORE": 1.0, "HOUSE_NUMBER_SCORE": 1.0, "distances": 2.0 }, "geometry": { "type": "LineString", "coordinates": [ [ 37.4700159, 55.689076 ], [ 37.47004, 55.68906 ] ] } },
{ "type": "Feature", "properties": { "ADDRESS": "Москва, ул. Радужная, д. 11", "ORIGINAL_LAT": 55.592271, "ORIGINAL_LNG": 37.37085, "LABEL": "Радужная улица 11, Москва, Россия, 142784", "COUNTRY": "Россия", "ADMIN3": "Москва", "CITY": "Москва", "POSTALCODE": "142784", "LAT": 55.59127, "LNG": 37.37424, "ACCESS_LAT": 55.59135, "ACCESS_LNG": 37.37396, "RESULT_TYPE": "houseNumber", "HOUSE_NUMBER_TYPE": "PA", "QUERY_SCORE": 1.0, "CITY_SCORE": 1.0, "STREET_SCORE": 1.0, "HOUSE_NUMBER_SCORE": 1.0, "distances": 241.0 }, "geometry": { "type": "LineString", "coordinates": [ [ 37.37085, 55.592271 ], [ 37.37424, 55.59127 ] ] } },
{ "type": "Feature", "properties": { "ADDRESS": "Москва, ул. Рождественская, д. 37", "ORIGINAL_LAT": 55.700866569044187, "ORIGINAL_LNG": 37.928704, "LABEL": "Рождественская улица 37, Москва, Россия, 111674", "COUNTRY": "Россия", "ADMIN3": "Москва", "CITY": "Москва", "POSTALCODE": "111674", "LAT": 55.70084, "LNG": 37.92867, "ACCESS_LAT": 55.70101, "ACCESS_LNG": 37.9284, "RESULT_TYPE": "houseNumber", "HOUSE_NUMBER_TYPE": "PA", "QUERY_SCORE": 1.0, "CITY_SCORE": 1.0, "STREET_SCORE": 1.0, "HOUSE_NUMBER_SCORE": 1.0, "distances": 4.0 }, "geometry": { "type": "LineString", "coordinates": [ [ 37.928704, 55.700866569044187 ], [ 37.92867, 55.70084 ] ] } },
{ "type": "Feature", "properties": { "ADDRESS": "Москва, Носовихинское шоссе, д. 5", "ORIGINAL_LAT": 55.745620069010243, "ORIGINAL_LNG": 37.8574945, "LABEL": "Носовихинское шоссе 1Б, Москва, Россия, 111672", "COUNTRY": "Россия", "ADMIN3": "Москва", "CITY": "Москва", "POSTALCODE": "111672", "LAT": 55.74458, "LNG": 37.84959, "ACCESS_LAT": 55.74449, "ACCESS_LNG": 37.84961, "RESULT_TYPE": "houseNumber", "HOUSE_NUMBER_TYPE": "PA", "QUERY_SCORE": 0.99, "CITY_SCORE": 1.0, "STREET_SCORE": 1.0, "HOUSE_NUMBER_SCORE": 0.95, "distances": 510.0 }, "geometry": { "type": "LineString", "coordinates": [ [ 37.857494499999966, 55.745620069010243 ], [ 37.84959, 55.74458 ] ] } },
{ "type": "Feature", "properties": { "ADDRESS": "Москва, Боровское шоссе, д. 46", "ORIGINAL_LAT": 55.636524069087251, "ORIGINAL_LNG": 37.348392, "LABEL": "Боровское шоссе 46, Москва, Россия, 119634", "COUNTRY": "Россия", "ADMIN3": "Москва", "CITY": "Москва", "POSTALCODE": "119634", "LAT": 55.63649, "LNG": 37.3484, "ACCESS_LAT": 55.63665, "ACCESS_LNG": 37.34821, "RESULT_TYPE": "houseNumber", "HOUSE_NUMBER_TYPE": "PA", "QUERY_SCORE": 1.0, "CITY_SCORE": 1.0, "STREET_SCORE": 1.0, "HOUSE_NUMBER_SCORE": 1.0, "distances": 4.0 }, "geometry": { "type": "LineString", "coordinates": [ [ 37.348392, 55.636524069087251 ], [ 37.3484, 55.63649 ] ] } },
{ "type": "Feature", "properties": { "ADDRESS": "Москва, пос. Десеновское, ул. 2-я Нововатутинская, д. 5", "ORIGINAL_LAT": 55.518442131770847, "ORIGINAL_LNG": 37.351322752639753, "LABEL": "2-я Нововатутинская улица 5, Москва, Россия, 142793", "COUNTRY": "Россия", "ADMIN3": "Москва", "CITY": "Москва", "POSTALCODE": "142793", "LAT": 55.51804, "LNG": 37.35205, "ACCESS_LAT": 55.51804, "ACCESS_LNG": 37.35173, "RESULT_TYPE": "houseNumber", "HOUSE_NUMBER_TYPE": "PA", "QUERY_SCORE": 0.66, "CITY_SCORE": 1.0, "STREET_SCORE": 1.0, "HOUSE_NUMBER_SCORE": 1.0, "distances": 64.0 }, "geometry": { "type": "LineString", "coordinates": [ [ 37.351322752639753, 55.518442131770847 ], [ 37.35205, 55.51804 ] ] } },
{ "type": "Feature", "properties": { "ADDRESS": "Москва, ул. Большая Очаковская, д. 28", "ORIGINAL_LAT": 55.681525633115584, "ORIGINAL_LNG": 37.452855073280062, "LABEL": "Большая Очаковская улица 28, Москва, Россия, 119361", "COUNTRY": "Россия", "ADMIN3": "Москва", "CITY": "Москва", "POSTALCODE": "119361", "LAT": 55.68119, "LNG": 37.45314, "ACCESS_LAT": 55.68118, "ACCESS_LNG": 37.45266, "RESULT_TYPE": "houseNumber", "HOUSE_NUMBER_TYPE": "PA", "QUERY_SCORE": 1.0, "CITY_SCORE": 1.0, "STREET_SCORE": 1.0, "HOUSE_NUMBER_SCORE": 1.0, "distances": 41.0 }, "geometry": { "type": "LineString", "coordinates": [ [ 37.452855073280062, 55.681525633115584 ], [ 37.45314, 55.68119 ] ] } },
{ "type": "Feature", "properties": { "ADDRESS": "Москва, ул. Маршала Бирюзова, д. 41", "ORIGINAL_LAT": 55.79905128, "ORIGINAL_LNG": 37.4821245, "LABEL": "улица Маршала Бирюзова 41, Москва, Россия, 123060", "COUNTRY": "Россия", "ADMIN3": "Москва", "CITY": "Москва", "POSTALCODE": "123060", "LAT": 55.79905, "LNG": 37.48208, "ACCESS_LAT": 55.79898, "ACCESS_LNG": 37.48196, "RESULT_TYPE": "houseNumber", "HOUSE_NUMBER_TYPE": "PA", "QUERY_SCORE": 1.0, "CITY_SCORE": 1.0, "STREET_SCORE": 1.0, "HOUSE_NUMBER_SCORE": 1.0, "distances": 3.0 }, "geometry": { "type": "LineString", "coordinates": [ [ 37.4821245, 55.79905128 ], [ 37.48208, 55.79905 ] ] } },
{ "type": "Feature", "properties": { "ADDRESS": "Москва, ул. Декабристов, д. 20 корп. 1", "ORIGINAL_LAT": 55.863202911242468, "ORIGINAL_LNG": 37.607323942319248, "LABEL": "улица Декабристов 20 корп 1, Москва, Россия, 127273", "COUNTRY": "Россия", "ADMIN3": "Москва", "CITY": "Москва", "POSTALCODE": "127273", "LAT": 55.86306, "LNG": 37.60688, "ACCESS_LAT": 55.86316, "ACCESS_LNG": 37.60729, "RESULT_TYPE": "houseNumber", "HOUSE_NUMBER_TYPE": "PA", "QUERY_SCORE": 1.0, "CITY_SCORE": 1.0, "STREET_SCORE": 1.0, "HOUSE_NUMBER_SCORE": 1.0, "distances": 32.0 }, "geometry": { "type": "LineString", "coordinates": [ [ 37.607323942319248, 55.863202911242468 ], [ 37.60688, 55.86306 ] ] } },
{ "type": "Feature", "properties": { "ADDRESS": "Москва, ул. Кожевническая, д. 7, стр. 1", "ORIGINAL_LAT": 55.730339160272997, "ORIGINAL_LNG": 37.645267144180309, "LABEL": "Кожевническая улица 7 стр 1, Москва, Россия, 115114", "COUNTRY": "Россия", "ADMIN3": "Москва", "CITY": "Москва", "POSTALCODE": "115114", "LAT": 55.73072, "LNG": 37.64644, "ACCESS_LAT": 55.73055, "ACCESS_LNG": 37.64507, "RESULT_TYPE": "houseNumber", "HOUSE_NUMBER_TYPE": "PA", "QUERY_SCORE": 1.0, "CITY_SCORE": 1.0, "STREET_SCORE": 1.0, "HOUSE_NUMBER_SCORE": 1.0, "distances": 85.0 }, "geometry": { "type": "LineString", "coordinates": [ [ 37.645267144180309, 55.730339160272997 ], [ 37.64644, 55.73072 ] ] } },
{ "type": "Feature", "properties": { "ADDRESS": "Москва, Измайловский бульвар, д. 58", "ORIGINAL_LAT": 55.796405, "ORIGINAL_LNG": 37.811878, "LABEL": "Измайловский бульвар 58, Москва, Россия, 105077", "COUNTRY": "Россия", "ADMIN3": "Москва", "CITY": "Москва", "POSTALCODE": "105077", "LAT": 55.79639, "LNG": 37.81206, "ACCESS_LAT": 55.79625, "ACCESS_LNG": 37.81169, "RESULT_TYPE": "houseNumber", "HOUSE_NUMBER_TYPE": "PA", "QUERY_SCORE": 1.0, "CITY_SCORE": 1.0, "STREET_SCORE": 1.0, "HOUSE_NUMBER_SCORE": 1.0, "distances": 12.0 }, "geometry": { "type": "LineString", "coordinates": [ [ 37.811878, 55.796405 ], [ 37.81206, 55.79639 ] ] } },
{ "type": "Feature", "properties": { "ADDRESS": "Москва, ул. Новогиреевская, д. 3а (при лаборатории)", "ORIGINAL_LAT": 55.762753, "ORIGINAL_LNG": 37.794999, "LABEL": "Новогиреевская улица 3А, Москва, Россия, 111123", "COUNTRY": "Россия", "ADMIN3": "Москва", "CITY": "Москва", "POSTALCODE": "111123", "LAT": 55.76277, "LNG": 37.79499, "ACCESS_LAT": 55.76245, "ACCESS_LNG": 37.79507, "RESULT_TYPE": "houseNumber", "HOUSE_NUMBER_TYPE": "PA", "QUERY_SCORE": 0.64, "CITY_SCORE": 1.0, "STREET_SCORE": 1.0, "HOUSE_NUMBER_SCORE": 1.0, "distances": 2.0 }, "geometry": { "type": "LineString", "coordinates": [ [ 37.794999, 55.762753 ], [ 37.79499, 55.76277 ] ] } },
{ "type": "Feature", "properties": { "ADDRESS": "Москва, ул. Народного Ополчения, д. 21, корп. 1", "ORIGINAL_LAT": 55.777530068973043, "ORIGINAL_LNG": 37.4772825, "LABEL": "улица Народного Ополчения 21 корп 1, Москва, Россия, 123154", "COUNTRY": "Россия", "ADMIN3": "Москва", "CITY": "Москва", "POSTALCODE": "123154", "LAT": 55.7775, "LNG": 37.47721, "ACCESS_LAT": 55.77762, "ACCESS_LNG": 37.47697, "RESULT_TYPE": "houseNumber", "HOUSE_NUMBER_TYPE": "PA", "QUERY_SCORE": 1.0, "CITY_SCORE": 1.0, "STREET_SCORE": 1.0, "HOUSE_NUMBER_SCORE": 1.0, "distances": 6.0 }, "geometry": { "type": "LineString", "coordinates": [ [ 37.477282499999987, 55.777530068973043 ], [ 37.47721, 55.7775 ] ] } },
{ "type": "Feature", "properties": { "ADDRESS": "Москва, ул. Кировоградская, д. 28, корп. 1", "ORIGINAL_LAT": 55.609477, "ORIGINAL_LNG": 37.601771, "LABEL": "Кировоградская улица 28 корп 1, Москва, Россия, 117519", "COUNTRY": "Россия", "ADMIN3": "Москва", "CITY": "Москва", "POSTALCODE": "117519", "LAT": 55.60943, "LNG": 37.6018, "ACCESS_LAT": 55.60949, "ACCESS_LNG": 37.60156, "RESULT_TYPE": "houseNumber", "HOUSE_NUMBER_TYPE": "PA", "QUERY_SCORE": 1.0, "CITY_SCORE": 1.0, "STREET_SCORE": 1.0, "HOUSE_NUMBER_SCORE": 1.0, "distances": 6.0 }, "geometry": { "type": "LineString", "coordinates": [ [ 37.601771, 55.609477 ], [ 37.6018, 55.60943 ] ] } },
{ "type": "Feature", "properties": { "ADDRESS": "Москва, ул. Новаторов, д. 4", "ORIGINAL_LAT": 55.669285, "ORIGINAL_LNG": 37.521686, "LABEL": "улица Новаторов 4, Москва, Россия, 119421", "COUNTRY": "Россия", "ADMIN3": "Москва", "CITY": "Москва", "POSTALCODE": "119421", "LAT": 55.66924, "LNG": 37.52208, "ACCESS_LAT": 55.66944, "ACCESS_LNG": 37.52224, "RESULT_TYPE": "houseNumber", "HOUSE_NUMBER_TYPE": "PA", "QUERY_SCORE": 1.0, "CITY_SCORE": 1.0, "STREET_SCORE": 1.0, "HOUSE_NUMBER_SCORE": 1.0, "distances": 25.0 }, "geometry": { "type": "LineString", "coordinates": [ [ 37.521686, 55.669285 ], [ 37.52208, 55.66924 ] ] } },
{ "type": "Feature", "properties": { "ADDRESS": "Москва, Мичуринский проспект, д. 9", "ORIGINAL_LAT": 55.70132828, "ORIGINAL_LNG": 37.507412, "LABEL": "Мичуринский проспект 9, Москва, Россия, 119192", "COUNTRY": "Россия", "ADMIN3": "Москва", "CITY": "Москва", "POSTALCODE": "119192", "LAT": 55.70134, "LNG": 37.50738, "ACCESS_LAT": 55.70118, "ACCESS_LNG": 37.50748, "RESULT_TYPE": "houseNumber", "HOUSE_NUMBER_TYPE": "PA", "QUERY_SCORE": 1.0, "CITY_SCORE": 1.0, "STREET_SCORE": 1.0, "HOUSE_NUMBER_SCORE": 1.0, "distances": 2.0 }, "geometry": { "type": "LineString", "coordinates": [ [ 37.507412, 55.70132828 ], [ 37.50738, 55.70134 ] ] } },
{ "type": "Feature", "properties": { "ADDRESS": "Москва, проспект Мира, д. 188Б, корп. 4", "ORIGINAL_LAT": 55.83499626113305, "ORIGINAL_LNG": 37.660158941802862, "LABEL": "проспект Мира корп.4, Москва, Россия, 129090", "COUNTRY": "Россия", "ADMIN3": "Москва", "CITY": "Москва", "POSTALCODE": "129090", "LAT": 55.77352, "LNG": 37.63255, "ACCESS_LAT": 55.77352, "ACCESS_LNG": 37.63231, "RESULT_TYPE": "houseNumber", "HOUSE_NUMBER_TYPE": "interpolated", "QUERY_SCORE": 0.82, "CITY_SCORE": 1.0, "STREET_SCORE": 1.0, "HOUSE_NUMBER_SCORE": 1.0, "distances": 7060.0 }, "geometry": { "type": "LineString", "coordinates": [ [ 37.660158941802862, 55.83499626113305 ], [ 37.63255, 55.77352 ] ] } },
{ "type": "Feature", "properties": { "ADDRESS": "Москва, ул. Талдомская, д. 17, корп. 1", "ORIGINAL_LAT": 55.874329, "ORIGINAL_LNG": 37.523501, "LABEL": "Талдомская улица 17 корп 1, Москва, Россия, 125412", "COUNTRY": "Россия", "ADMIN3": "Москва", "CITY": "Москва", "POSTALCODE": "125412", "LAT": 55.87439, "LNG": 37.52366, "ACCESS_LAT": 55.87449, "ACCESS_LNG": 37.52344, "RESULT_TYPE": "houseNumber", "HOUSE_NUMBER_TYPE": "PA", "QUERY_SCORE": 1.0, "CITY_SCORE": 1.0, "STREET_SCORE": 1.0, "HOUSE_NUMBER_SCORE": 1.0, "distances": 12.0 }, "geometry": { "type": "LineString", "coordinates": [ [ 37.523501, 55.874329 ], [ 37.52366, 55.87439 ] ] } },
{ "type": "Feature", "properties": { "ADDRESS": "Москва, ул. Нежинская, д. 8, корп. 4", "ORIGINAL_LAT": 55.71008328, "ORIGINAL_LNG": 37.4714615, "LABEL": "Нежинская улица 8 корп 4, Москва, Россия, 119517", "COUNTRY": "Россия", "ADMIN3": "Москва", "CITY": "Москва", "POSTALCODE": "119517", "LAT": 55.71005, "LNG": 37.47147, "ACCESS_LAT": 55.70991, "ACCESS_LNG": 37.4719, "RESULT_TYPE": "houseNumber", "HOUSE_NUMBER_TYPE": "PA", "QUERY_SCORE": 1.0, "CITY_SCORE": 1.0, "STREET_SCORE": 1.0, "HOUSE_NUMBER_SCORE": 1.0, "distances": 4.0 }, "geometry": { "type": "LineString", "coordinates": [ [ 37.4714615, 55.71008328 ], [ 37.47147, 55.71005 ] ] } },
{ "type": "Feature", "properties": { "ADDRESS": "Москва, Троилинский переулок, д. 4\/7", "ORIGINAL_LAT": 55.748217, "ORIGINAL_LNG": 37.584572, "LABEL": "Троилинский переулок 4\/7, Москва, Россия, 119002", "COUNTRY": "Россия", "ADMIN3": "Москва", "CITY": "Москва", "POSTALCODE": "119002", "LAT": 55.74827, "LNG": 37.58454, "ACCESS_LAT": 55.74848, "ACCESS_LNG": 37.58459, "RESULT_TYPE": "houseNumber", "HOUSE_NUMBER_TYPE": "PA", "QUERY_SCORE": 1.0, "CITY_SCORE": 1.0, "STREET_SCORE": 1.0, "HOUSE_NUMBER_SCORE": 1.0, "distances": 6.0 }, "geometry": { "type": "LineString", "coordinates": [ [ 37.584572, 55.748217 ], [ 37.58454, 55.74827 ] ] } },
{ "type": "Feature", "properties": { "ADDRESS": "Москва, Солнцевский проспект, д. 10", "ORIGINAL_LAT": 55.65164828, "ORIGINAL_LNG": 37.4016085, "LABEL": "Солнцевский проспект 10, Москва, Россия, 119620", "COUNTRY": "Россия", "ADMIN3": "Москва", "CITY": "Москва", "POSTALCODE": "119620", "LAT": 55.65157, "LNG": 37.40181, "ACCESS_LAT": 55.65143, "ACCESS_LNG": 37.4017, "RESULT_TYPE": "houseNumber", "HOUSE_NUMBER_TYPE": "PA", "QUERY_SCORE": 1.0, "CITY_SCORE": 1.0, "STREET_SCORE": 1.0, "HOUSE_NUMBER_SCORE": 1.0, "distances": 15.0 }, "geometry": { "type": "LineString", "coordinates": [ [ 37.4016085, 55.65164828 ], [ 37.40181, 55.65157 ] ] } },
{ "type": "Feature", "properties": { "ADDRESS": "Москва, ул. Кулакова, д. 19", "ORIGINAL_LAT": 55.806216, "ORIGINAL_LNG": 37.396704, "LABEL": "улица Кулакова 19, Москва, Россия, 123592", "COUNTRY": "Россия", "ADMIN3": "Москва", "CITY": "Москва", "POSTALCODE": "123592", "LAT": 55.80641, "LNG": 37.39587, "ACCESS_LAT": 55.80658, "ACCESS_LNG": 37.39594, "RESULT_TYPE": "houseNumber", "HOUSE_NUMBER_TYPE": "PA", "QUERY_SCORE": 1.0, "CITY_SCORE": 1.0, "STREET_SCORE": 1.0, "HOUSE_NUMBER_SCORE": 1.0, "distances": 57.0 }, "geometry": { "type": "LineString", "coordinates": [ [ 37.396704, 55.806216 ], [ 37.39587, 55.80641 ] ] } },
{ "type": "Feature", "properties": { "ADDRESS": "Москва, Ананьевский переулок, д. 5, стр. 9", "ORIGINAL_LAT": 55.771505, "ORIGINAL_LNG": 37.634513, "LABEL": "Ананьевский переулок 5 стр 9, Москва, Россия, 107045", "COUNTRY": "Россия", "ADMIN3": "Москва", "CITY": "Москва", "POSTALCODE": "107045", "LAT": 55.77151, "LNG": 37.63452, "ACCESS_LAT": 55.77144, "ACCESS_LNG": 37.63475, "RESULT_TYPE": "houseNumber", "HOUSE_NUMBER_TYPE": "PA", "QUERY_SCORE": 1.0, "CITY_SCORE": 1.0, "STREET_SCORE": 1.0, "HOUSE_NUMBER_SCORE": 1.0, "distances": 1.0 }, "geometry": { "type": "LineString", "coordinates": [ [ 37.634513, 55.771505 ], [ 37.63452, 55.77151 ] ] } },
{ "type": "Feature", "properties": { "ADDRESS": "Москва, ул. Николоямская, д. 31", "ORIGINAL_LAT": 55.747312568984803, "ORIGINAL_LNG": 37.657143, "LABEL": "Николоямская улица 31, Москва, Россия, 109004", "COUNTRY": "Россия", "ADMIN3": "Москва", "CITY": "Москва", "POSTALCODE": "109004", "LAT": 55.74736, "LNG": 37.65711, "ACCESS_LAT": 55.74718, "ACCESS_LNG": 37.65713, "RESULT_TYPE": "houseNumber", "HOUSE_NUMBER_TYPE": "PA", "QUERY_SCORE": 1.0, "CITY_SCORE": 1.0, "STREET_SCORE": 1.0, "HOUSE_NUMBER_SCORE": 1.0, "distances": 6.0 }, "geometry": { "type": "LineString", "coordinates": [ [ 37.657143, 55.747312568984803 ], [ 37.65711, 55.74736 ] ] } },
{ "type": "Feature", "properties": { "ADDRESS": "Москва, ул. Профсоюзная, д. 146, корп. 1", "ORIGINAL_LAT": 55.623625, "ORIGINAL_LNG": 37.507008, "LABEL": "Профсоюзная улица 146 корп 1, Москва, Россия, 117321", "COUNTRY": "Россия", "ADMIN3": "Москва", "CITY": "Москва", "POSTALCODE": "117321", "LAT": 55.6237, "LNG": 37.5072, "ACCESS_LAT": 55.62371, "ACCESS_LNG": 37.50673, "RESULT_TYPE": "houseNumber", "HOUSE_NUMBER_TYPE": "PA", "QUERY_SCORE": 1.0, "CITY_SCORE": 1.0, "STREET_SCORE": 1.0, "HOUSE_NUMBER_SCORE": 1.0, "distances": 15.0 }, "geometry": { "type": "LineString", "coordinates": [ [ 37.507008, 55.623625 ], [ 37.5072, 55.6237 ] ] } },
{ "type": "Feature", "properties": { "ADDRESS": "Москва, Красностуденческий проезд, д. 1", "ORIGINAL_LAT": 55.824855, "ORIGINAL_LNG": 37.565237, "LABEL": "Красностуденческий проезд 1, Москва, Россия, 127434", "COUNTRY": "Россия", "ADMIN3": "Москва", "CITY": "Москва", "POSTALCODE": "127434", "LAT": 55.82553, "LNG": 37.5697, "ACCESS_LAT": 55.82568, "ACCESS_LNG": 37.56951, "RESULT_TYPE": "houseNumber", "HOUSE_NUMBER_TYPE": "PA", "QUERY_SCORE": 1.0, "CITY_SCORE": 1.0, "STREET_SCORE": 1.0, "HOUSE_NUMBER_SCORE": 1.0, "distances": 290.0 }, "geometry": { "type": "LineString", "coordinates": [ [ 37.565237, 55.824855 ], [ 37.5697, 55.82553 ] ] } },
{ "type": "Feature", "properties": { "ADDRESS": "Москва, Парковый переулок, д. 4", "ORIGINAL_LAT": 55.491314, "ORIGINAL_LNG": 37.304141, "LABEL": "Парковый переулок 4, Калининград, Россия, 236004", "COUNTRY": "Россия", "ADMIN3": "Калининградская область", "CITY": "Калининград", "POSTALCODE": "236004", "LAT": 54.69073, "LNG": 20.52022, "ACCESS_LAT": 54.69072, "ACCESS_LNG": 20.51996, "RESULT_TYPE": "houseNumber", "HOUSE_NUMBER_TYPE": "PA", "QUERY_SCORE": 0.75, "CITY_SCORE": null, "STREET_SCORE": 1.0, "HOUSE_NUMBER_SCORE": 1.0, "distances": 1072704.0 }, "geometry": { "type": "LineString", "coordinates": [ [ 37.304141, 55.491314 ], [ 20.52022, 54.69073 ] ] } },
{ "type": "Feature", "properties": { "ADDRESS": "Москва, ул. Тушинская, д. 12", "ORIGINAL_LAT": 55.827029068921348, "ORIGINAL_LNG": 37.448285, "LABEL": "Тушинская улица 12, Москва, Россия, 125362", "COUNTRY": "Россия", "ADMIN3": "Москва", "CITY": "Москва", "POSTALCODE": "125362", "LAT": 55.82703, "LNG": 37.44818, "ACCESS_LAT": 55.82716, "ACCESS_LNG": 37.44821, "RESULT_TYPE": "houseNumber", "HOUSE_NUMBER_TYPE": "PA", "QUERY_SCORE": 1.0, "CITY_SCORE": 1.0, "STREET_SCORE": 1.0, "HOUSE_NUMBER_SCORE": 1.0, "distances": 7.0 }, "geometry": { "type": "LineString", "coordinates": [ [ 37.448285, 55.827029068921348 ], [ 37.44818, 55.82703 ] ] } },
{ "type": "Feature", "properties": { "ADDRESS": "Москва, ул. 1905 года, д. 7, корп. 1", "ORIGINAL_LAT": 55.761441568961487, "ORIGINAL_LNG": 37.5587325, "LABEL": "улица 1812-го года 7, Москва, Россия, 121170", "COUNTRY": "Россия", "ADMIN3": "Москва", "CITY": "Москва", "POSTALCODE": "121170", "LAT": 55.73823, "LNG": 37.52174, "ACCESS_LAT": 55.73816, "ACCESS_LNG": 37.52148, "RESULT_TYPE": "houseNumber", "HOUSE_NUMBER_TYPE": "PA", "QUERY_SCORE": 0.51, "CITY_SCORE": 1.0, "STREET_SCORE": 0.33, "HOUSE_NUMBER_SCORE": 0.99, "distances": 3475.0 }, "geometry": { "type": "LineString", "coordinates": [ [ 37.558732500000019, 55.761441568961487 ], [ 37.52174, 55.73823 ] ] } },
{ "type": "Feature", "properties": { "ADDRESS": "Москва, Ломоносовский проспект, д. 23", "ORIGINAL_LAT": 55.690469, "ORIGINAL_LNG": 37.53651, "LABEL": "Ломоносовский проспект 23, Москва, Россия, 119311", "COUNTRY": "Россия", "ADMIN3": "Москва", "CITY": "Москва", "POSTALCODE": "119311", "LAT": 55.6916, "LNG": 37.53637, "ACCESS_LAT": 55.69139, "ACCESS_LNG": 37.53671, "RESULT_TYPE": "houseNumber", "HOUSE_NUMBER_TYPE": "PA", "QUERY_SCORE": 1.0, "CITY_SCORE": 1.0, "STREET_SCORE": 1.0, "HOUSE_NUMBER_SCORE": 1.0, "distances": 126.0 }, "geometry": { "type": "LineString", "coordinates": [ [ 37.53651, 55.690469 ], [ 37.53637, 55.6916 ] ] } },
{ "type": "Feature", "properties": { "ADDRESS": "Москва, ул. Милашенкова, д. 8", "ORIGINAL_LAT": 55.825259896592669, "ORIGINAL_LNG": 37.585347915344251, "LABEL": "улица Милашенкова 8, Москва, Россия, 127322", "COUNTRY": "Россия", "ADMIN3": "Москва", "CITY": "Москва", "POSTALCODE": "127322", "LAT": 55.82515, "LNG": 37.58523, "ACCESS_LAT": 55.82529, "ACCESS_LNG": 37.5855, "RESULT_TYPE": "houseNumber", "HOUSE_NUMBER_TYPE": "PA", "QUERY_SCORE": 1.0, "CITY_SCORE": 1.0, "STREET_SCORE": 1.0, "HOUSE_NUMBER_SCORE": 1.0, "distances": 14.0 }, "geometry": { "type": "LineString", "coordinates": [ [ 37.585347915344251, 55.825259896592669 ], [ 37.58523, 55.82515 ] ] } },
{ "type": "Feature", "properties": { "ADDRESS": "Москва, проспект Балаклавский, д. 16, корп. 2", "ORIGINAL_LAT": 55.642133069101618, "ORIGINAL_LNG": 37.5993455, "LABEL": "Балаклавский проспект 16 корп 2, Москва, Россия, 117452", "COUNTRY": "Россия", "ADMIN3": "Москва", "CITY": "Москва", "POSTALCODE": "117452", "LAT": 55.64216, "LNG": 37.59934, "ACCESS_LAT": 55.64228, "ACCESS_LNG": 37.59936, "RESULT_TYPE": "houseNumber", "HOUSE_NUMBER_TYPE": "PA", "QUERY_SCORE": 1.0, "CITY_SCORE": 1.0, "STREET_SCORE": 1.0, "HOUSE_NUMBER_SCORE": 1.0, "distances": 3.0 }, "geometry": { "type": "LineString", "coordinates": [ [ 37.5993455, 55.642133069101618 ], [ 37.59934, 55.64216 ] ] } },
{ "type": "Feature", "properties": { "ADDRESS": "Москва, ул. Шаболовка, д. 50", "ORIGINAL_LAT": 55.713676, "ORIGINAL_LNG": 37.606055, "LABEL": "улица Шаболовка 50, Москва, Россия, 115419", "COUNTRY": "Россия", "ADMIN3": "Москва", "CITY": "Москва", "POSTALCODE": "115419", "LAT": 55.71369, "LNG": 37.60596, "ACCESS_LAT": 55.7138, "ACCESS_LNG": 37.60601, "RESULT_TYPE": "houseNumber", "HOUSE_NUMBER_TYPE": "PA", "QUERY_SCORE": 1.0, "CITY_SCORE": 1.0, "STREET_SCORE": 1.0, "HOUSE_NUMBER_SCORE": 1.0, "distances": 6.0 }, "geometry": { "type": "LineString", "coordinates": [ [ 37.606055, 55.713676 ], [ 37.60596, 55.71369 ] ] } },
{ "type": "Feature", "properties": { "ADDRESS": "Москва, ул. Мусы Джалиля, д. 4, корп. 6", "ORIGINAL_LAT": 55.62869278, "ORIGINAL_LNG": 37.7406775, "LABEL": "улица Мусы Джалиля 4 корп 6, Москва, Россия, 115580", "COUNTRY": "Россия", "ADMIN3": "Москва", "CITY": "Москва", "POSTALCODE": "115580", "LAT": 55.6287, "LNG": 37.74067, "ACCESS_LAT": 55.6287, "ACCESS_LNG": 37.74104, "RESULT_TYPE": "houseNumber", "HOUSE_NUMBER_TYPE": "PA", "QUERY_SCORE": 1.0, "CITY_SCORE": 1.0, "STREET_SCORE": 1.0, "HOUSE_NUMBER_SCORE": 1.0, "distances": 1.0 }, "geometry": { "type": "LineString", "coordinates": [ [ 37.7406775, 55.62869278 ], [ 37.74067, 55.6287 ] ] } },
{ "type": "Feature", "properties": { "ADDRESS": "Москва, проспект Буденного, д. 30А", "ORIGINAL_LAT": 55.761509704003132, "ORIGINAL_LNG": 37.734696373016277, "LABEL": "проспект Будённого 30А, Москва, Россия, 105118", "COUNTRY": "Россия", "ADMIN3": "Москва", "CITY": "Москва", "POSTALCODE": "105118", "LAT": 55.76133, "LNG": 37.73462, "ACCESS_LAT": 55.76144, "ACCESS_LNG": 37.73484, "RESULT_TYPE": "houseNumber", "HOUSE_NUMBER_TYPE": "PA", "QUERY_SCORE": 1.0, "CITY_SCORE": 1.0, "STREET_SCORE": 1.0, "HOUSE_NUMBER_SCORE": 1.0, "distances": 21.0 }, "geometry": { "type": "LineString", "coordinates": [ [ 37.734696373016277, 55.761509704003132 ], [ 37.73462, 55.76133 ] ] } },
{ "type": "Feature", "properties": { "ADDRESS": "Москва, ул. Уральская, д. 6, корп. 1", "ORIGINAL_LAT": 55.813894, "ORIGINAL_LNG": 37.799289, "LABEL": "Уральская улица 6 корп 1, Москва, Россия, 107207", "COUNTRY": "Россия", "ADMIN3": "Москва", "CITY": "Москва", "POSTALCODE": "107207", "LAT": 55.81389, "LNG": 37.79932, "ACCESS_LAT": 55.81363, "ACCESS_LNG": 37.79956, "RESULT_TYPE": "houseNumber", "HOUSE_NUMBER_TYPE": "PA", "QUERY_SCORE": 1.0, "CITY_SCORE": 1.0, "STREET_SCORE": 1.0, "HOUSE_NUMBER_SCORE": 1.0, "distances": 2.0 }, "geometry": { "type": "LineString", "coordinates": [ [ 37.799289, 55.813894 ], [ 37.79932, 55.81389 ] ] } },
{ "type": "Feature", "properties": { "ADDRESS": "Москва, ул. Маршала Савицкого, д. 26, корп. 2", "ORIGINAL_LAT": 55.503038, "ORIGINAL_LNG": 37.594549, "LABEL": "улица Маршала Савицкого 26 корп 2, Москва, Россия, 117148", "COUNTRY": "Россия", "ADMIN3": "Москва", "CITY": "Москва", "POSTALCODE": "117148", "LAT": 55.50308, "LNG": 37.59468, "ACCESS_LAT": 55.50308, "ACCESS_LNG": 37.59497, "RESULT_TYPE": "houseNumber", "HOUSE_NUMBER_TYPE": "PA", "QUERY_SCORE": 1.0, "CITY_SCORE": 1.0, "STREET_SCORE": 1.0, "HOUSE_NUMBER_SCORE": 1.0, "distances": 10.0 }, "geometry": { "type": "LineString", "coordinates": [ [ 37.594549, 55.503038 ], [ 37.59468, 55.50308 ] ] } },
{ "type": "Feature", "properties": { "ADDRESS": "Москва, ул. Авиационная, д. 63", "ORIGINAL_LAT": 55.809632578285608, "ORIGINAL_LNG": 37.455311134918205, "LABEL": "Авиационная улица 63, Москва, Россия, 123182", "COUNTRY": "Россия", "ADMIN3": "Москва", "CITY": "Москва", "POSTALCODE": "123182", "LAT": 55.80933, "LNG": 37.45489, "ACCESS_LAT": 55.80915, "ACCESS_LNG": 37.4553, "RESULT_TYPE": "houseNumber", "HOUSE_NUMBER_TYPE": "PA", "QUERY_SCORE": 1.0, "CITY_SCORE": 1.0, "STREET_SCORE": 1.0, "HOUSE_NUMBER_SCORE": 1.0, "distances": 43.0 }, "geometry": { "type": "LineString", "coordinates": [ [ 37.455311134918205, 55.809632578285608 ], [ 37.45489, 55.80933 ] ] } },
{ "type": "Feature", "properties": { "ADDRESS": "Москва, Проспект Вернадского, д. 127", "ORIGINAL_LAT": 55.653138, "ORIGINAL_LNG": 37.481194, "LABEL": "проспект Вернадского 127, Москва, Россия, 119571", "COUNTRY": "Россия", "ADMIN3": "Москва", "CITY": "Москва", "POSTALCODE": "119571", "LAT": 55.65321, "LNG": 37.48115, "ACCESS_LAT": 55.65328, "ACCESS_LNG": 37.48147, "RESULT_TYPE": "houseNumber", "HOUSE_NUMBER_TYPE": "PA", "QUERY_SCORE": 1.0, "CITY_SCORE": 1.0, "STREET_SCORE": 1.0, "HOUSE_NUMBER_SCORE": 1.0, "distances": 8.0 }, "geometry": { "type": "LineString", "coordinates": [ [ 37.481194, 55.653138 ], [ 37.48115, 55.65321 ] ] } },
{ "type": "Feature", "properties": { "ADDRESS": "Москва, ул. Кировоградская, д. 8 корп. 4", "ORIGINAL_LAT": 55.626858069121859, "ORIGINAL_LNG": 37.6100625, "LABEL": "Кировоградская улица 8 корп 4, Москва, Россия, 117587", "COUNTRY": "Россия", "ADMIN3": "Москва", "CITY": "Москва", "POSTALCODE": "117587", "LAT": 55.62702, "LNG": 37.61014, "ACCESS_LAT": 55.62707, "ACCESS_LNG": 37.60984, "RESULT_TYPE": "houseNumber", "HOUSE_NUMBER_TYPE": "PA", "QUERY_SCORE": 1.0, "CITY_SCORE": 1.0, "STREET_SCORE": 1.0, "HOUSE_NUMBER_SCORE": 1.0, "distances": 19.0 }, "geometry": { "type": "LineString", "coordinates": [ [ 37.610062499999962, 55.626858069121859 ], [ 37.61014, 55.62702 ] ] } },
{ "type": "Feature", "properties": { "ADDRESS": "Москва, ул. Ясногорская, д. 17\/1", "ORIGINAL_LAT": 55.60213856914762, "ORIGINAL_LNG": 37.5332385, "LABEL": "Ясногорская улица 17 корп 1, Москва, Россия, 117463", "COUNTRY": "Россия", "ADMIN3": "Москва", "CITY": "Москва", "POSTALCODE": "117463", "LAT": 55.60214, "LNG": 37.53325, "ACCESS_LAT": 55.60209, "ACCESS_LNG": 37.5335, "RESULT_TYPE": "houseNumber", "HOUSE_NUMBER_TYPE": "PA", "QUERY_SCORE": 0.88, "CITY_SCORE": 1.0, "STREET_SCORE": 1.0, "HOUSE_NUMBER_SCORE": 0.5, "distances": 1.0 }, "geometry": { "type": "LineString", "coordinates": [ [ 37.5332385, 55.60213856914762 ], [ 37.53325, 55.60214 ] ] } },
{ "type": "Feature", "properties": { "ADDRESS": "Москва, Милютинский переулок, д. 15, стр. 1", "ORIGINAL_LAT": 55.765083069000667, "ORIGINAL_LNG": 37.6319185, "LABEL": "Милютинский переулок 15 стр 1, Москва, Россия, 101000", "COUNTRY": "Россия", "ADMIN3": "Москва", "CITY": "Москва", "POSTALCODE": "101000", "LAT": 55.76509, "LNG": 37.6319, "ACCESS_LAT": 55.76511, "ACCESS_LNG": 37.63146, "RESULT_TYPE": "houseNumber", "HOUSE_NUMBER_TYPE": "PA", "QUERY_SCORE": 1.0, "CITY_SCORE": 1.0, "STREET_SCORE": 1.0, "HOUSE_NUMBER_SCORE": 1.0, "distances": 1.0 }, "geometry": { "type": "LineString", "coordinates": [ [ 37.6319185, 55.765083069000667 ], [ 37.6319, 55.76509 ] ] } },
{ "type": "Feature", "properties": { "ADDRESS": "Мурманск, пр-т Кольский, д. 61", "ORIGINAL_LAT": 68.925693, "ORIGINAL_LNG": 33.107832, "LABEL": "Кольский проспект 61, Мурманск, Россия, 183008", "COUNTRY": "Россия", "ADMIN3": "Мурманская область", "CITY": "Мурманск", "POSTALCODE": "183008", "LAT": 68.92565, "LNG": 33.10787, "ACCESS_LAT": 68.92543, "ACCESS_LNG": 33.10917, "RESULT_TYPE": "houseNumber", "HOUSE_NUMBER_TYPE": "PA", "QUERY_SCORE": 0.86, "CITY_SCORE": 1.0, "STREET_SCORE": 0.9, "HOUSE_NUMBER_SCORE": 1.0, "distances": 5.0 }, "geometry": { "type": "LineString", "coordinates": [ [ 33.107832, 68.925693 ], [ 33.10787, 68.92565 ] ] } },
{ "type": "Feature", "properties": { "ADDRESS": "Мурманск, ул. Лобова, д. 4", "ORIGINAL_LAT": 69.0150577, "ORIGINAL_LNG": 33.103556, "LABEL": "Больница (ул. Лобова), улица Адмирала Лобова 11, Мурманск, Россия, 183017", "COUNTRY": "Россия", "ADMIN3": "Мурманская область", "CITY": "Мурманск", "POSTALCODE": "183017", "LAT": 69.01639, "LNG": 33.09954, "ACCESS_LAT": 69.0163, "ACCESS_LNG": 33.09923, "RESULT_TYPE": "place", "HOUSE_NUMBER_TYPE": null, "QUERY_SCORE": 0.8, "CITY_SCORE": 1.0, "STREET_SCORE": null, "HOUSE_NUMBER_SCORE": 0.93, "distances": 219.0 }, "geometry": { "type": "LineString", "coordinates": [ [ 33.103556, 69.0150577 ], [ 33.09954, 69.01639 ] ] } },
{ "type": "Feature", "properties": { "ADDRESS": "Мытищи, 2-й Щелковский проезд, д. 3", "ORIGINAL_LAT": 55.922978568839696, "ORIGINAL_LNG": 37.7837785, "LABEL": "2-й Щёлковский проезд 3, Мытищи, Россия, 141007", "COUNTRY": "Россия", "ADMIN3": "Московская область", "CITY": "Мытищи", "POSTALCODE": "141007", "LAT": 55.92305, "LNG": 37.7838, "ACCESS_LAT": 55.92305, "ACCESS_LNG": 37.78337, "RESULT_TYPE": "houseNumber", "HOUSE_NUMBER_TYPE": "PA", "QUERY_SCORE": 1.0, "CITY_SCORE": 1.0, "STREET_SCORE": 1.0, "HOUSE_NUMBER_SCORE": 1.0, "distances": 8.0 }, "geometry": { "type": "LineString", "coordinates": [ [ 37.783778499999983, 55.922978568839696 ], [ 37.7838, 55.92305 ] ] } },
{ "type": "Feature", "properties": { "ADDRESS": "Мытищи, ул. Веры Волошиной, д. 9\/2", "ORIGINAL_LAT": 55.893021635719172, "ORIGINAL_LNG": 37.723963838066126, "LABEL": "улица Веры Волошиной 9, Прокопьевск, Россия, 653003", "COUNTRY": "Россия", "ADMIN3": "Кемеровская область - Кузбасс", "CITY": "Прокопьевск", "POSTALCODE": "653003", "LAT": 53.90865, "LNG": 86.72184, "ACCESS_LAT": 53.90868, "ACCESS_LNG": 86.72207, "RESULT_TYPE": "houseNumber", "HOUSE_NUMBER_TYPE": "PA", "QUERY_SCORE": 0.7, "CITY_SCORE": null, "STREET_SCORE": 1.0, "HOUSE_NUMBER_SCORE": 0.99, "distances": 3084851.0 }, "geometry": { "type": "LineString", "coordinates": [ [ 37.723963838066126, 55.893021635719172 ], [ 86.72184, 53.90865 ] ] } },
{ "type": "Feature", "properties": { "ADDRESS": "Мытищи, ул. Воровского, д. 1 ", "ORIGINAL_LAT": 55.9187263, "ORIGINAL_LNG": 37.7616626, "LABEL": "улица Воровского 1, Мытищи, Россия, 141006", "COUNTRY": "Россия", "ADMIN3": "Московская область", "CITY": "Мытищи", "POSTALCODE": "141006", "LAT": 55.91932, "LNG": 37.76195, "ACCESS_LAT": 55.91927, "ACCESS_LNG": 37.76139, "RESULT_TYPE": "houseNumber", "HOUSE_NUMBER_TYPE": "PA", "QUERY_SCORE": 1.0, "CITY_SCORE": 1.0, "STREET_SCORE": 1.0, "HOUSE_NUMBER_SCORE": 1.0, "distances": 69.0 }, "geometry": { "type": "LineString", "coordinates": [ [ 37.7616626, 55.9187263 ], [ 37.76195, 55.91932 ] ] } },
{ "type": "Feature", "properties": { "ADDRESS": "Мытищи, ул. Институтская 2-я, д. 26", "ORIGINAL_LAT": 55.929717276241973, "ORIGINAL_LNG": 37.79676653306575, "LABEL": "2-я Институтская улица 26, Мытищи, Россия, 141005", "COUNTRY": "Россия", "ADMIN3": "Московская область", "CITY": "Мытищи", "POSTALCODE": "141005", "LAT": 55.92974, "LNG": 37.79688, "ACCESS_LAT": 55.93033, "ACCESS_LNG": 37.79688, "RESULT_TYPE": "houseNumber", "HOUSE_NUMBER_TYPE": "PA", "QUERY_SCORE": 0.92, "CITY_SCORE": 1.0, "STREET_SCORE": 0.93, "HOUSE_NUMBER_SCORE": 1.0, "distances": 8.0 }, "geometry": { "type": "LineString", "coordinates": [ [ 37.79676653306575, 55.929717276241973 ], [ 37.79688, 55.92974 ] ] } },
{ "type": "Feature", "properties": { "ADDRESS": "Мытищи, ул. Колпакова, д. 25", "ORIGINAL_LAT": 55.918646, "ORIGINAL_LNG": 37.729134, "LABEL": "улица Колпакова 25, Мытищи, Россия, 141008", "COUNTRY": "Россия", "ADMIN3": "Московская область", "CITY": "Мытищи", "POSTALCODE": "141008", "LAT": 55.91863, "LNG": 37.72921, "ACCESS_LAT": 55.91839, "ACCESS_LNG": 37.7291, "RESULT_TYPE": "houseNumber", "HOUSE_NUMBER_TYPE": "PA", "QUERY_SCORE": 1.0, "CITY_SCORE": 1.0, "STREET_SCORE": 1.0, "HOUSE_NUMBER_SCORE": 1.0, "distances": 5.0 }, "geometry": { "type": "LineString", "coordinates": [ [ 37.729134, 55.918646 ], [ 37.72921, 55.91863 ] ] } },
{ "type": "Feature", "properties": { "ADDRESS": "Мытищи, ул. Юбилейная, д. 30", "ORIGINAL_LAT": 55.907844068830663, "ORIGINAL_LNG": 37.7091105, "LABEL": "Юбилейная улица 30, Мытищи, Россия, 141001", "COUNTRY": "Россия", "ADMIN3": "Московская область", "CITY": "Мытищи", "POSTALCODE": "141001", "LAT": 55.90782, "LNG": 37.70906, "ACCESS_LAT": 55.90787, "ACCESS_LNG": 37.70865, "RESULT_TYPE": "houseNumber", "HOUSE_NUMBER_TYPE": "PA", "QUERY_SCORE": 1.0, "CITY_SCORE": 1.0, "STREET_SCORE": 1.0, "HOUSE_NUMBER_SCORE": 1.0, "distances": 4.0 }, "geometry": { "type": "LineString", "coordinates": [ [ 37.70911049999998, 55.907844068830663 ], [ 37.70906, 55.90782 ] ] } },
{ "type": "Feature", "properties": { "ADDRESS": "Назрань, ул. Чеченская, д. 8а", "ORIGINAL_LAT": 43.219420574526417, "ORIGINAL_LNG": 44.754364, "LABEL": "Чеченская улица 8А, Назрань, Россия, 386101", "COUNTRY": "Россия", "ADMIN3": "Республика Ингушетия", "CITY": "Назрань", "POSTALCODE": "386101", "LAT": 43.21888, "LNG": 44.7569, "ACCESS_LAT": 43.21922, "ACCESS_LNG": 44.75671, "RESULT_TYPE": "houseNumber", "HOUSE_NUMBER_TYPE": "PA", "QUERY_SCORE": 1.0, "CITY_SCORE": 1.0, "STREET_SCORE": 1.0, "HOUSE_NUMBER_SCORE": 1.0, "distances": 215.0 }, "geometry": { "type": "LineString", "coordinates": [ [ 44.754364, 43.219420574526417 ], [ 44.7569, 43.21888 ] ] } },
{ "type": "Feature", "properties": { "ADDRESS": "Нальчик, ул. Ашурова, д. 22", "ORIGINAL_LAT": 43.503387074537848, "ORIGINAL_LNG": 43.6443245, "LABEL": "улица Ашурова 22, Нальчик, Россия, 360024", "COUNTRY": "Россия", "ADMIN3": "Кабардино-Балкарская Республика", "CITY": "Нальчик", "POSTALCODE": "360024", "LAT": 43.50341, "LNG": 43.64435, "ACCESS_LAT": 43.50321, "ACCESS_LNG": 43.64414, "RESULT_TYPE": "houseNumber", "HOUSE_NUMBER_TYPE": "PA", "QUERY_SCORE": 1.0, "CITY_SCORE": 1.0, "STREET_SCORE": 1.0, "HOUSE_NUMBER_SCORE": 1.0, "distances": 3.0 }, "geometry": { "type": "LineString", "coordinates": [ [ 43.644324499999946, 43.503387074537848 ], [ 43.64435, 43.50341 ] ] } },
{ "type": "Feature", "properties": { "ADDRESS": "Нальчик, ул. Тургенева, д. 54", "ORIGINAL_LAT": 43.492711587040247, "ORIGINAL_LNG": 43.598897795214839, "LABEL": "улица Тургенева 54, Нальчик, Россия, 360004", "COUNTRY": "Россия", "ADMIN3": "Кабардино-Балкарская Республика", "CITY": "Нальчик", "POSTALCODE": "360004", "LAT": 43.49273, "LNG": 43.59892, "ACCESS_LAT": 43.49263, "ACCESS_LNG": 43.59875, "RESULT_TYPE": "houseNumber", "HOUSE_NUMBER_TYPE": "PA", "QUERY_SCORE": 1.0, "CITY_SCORE": 1.0, "STREET_SCORE": 1.0, "HOUSE_NUMBER_SCORE": 1.0, "distances": 3.0 }, "geometry": { "type": "LineString", "coordinates": [ [ 43.598897795214839, 43.492711587040247 ], [ 43.59892, 43.49273 ] ] } },
{ "type": "Feature", "properties": { "ADDRESS": "Нальчик, ул. Шортанова, д. 81", "ORIGINAL_LAT": 43.482943074534965, "ORIGINAL_LNG": 43.5928155, "LABEL": "улица Шортанова 81, Нальчик, Россия, 360017", "COUNTRY": "Россия", "ADMIN3": "Кабардино-Балкарская Республика", "CITY": "Нальчик", "POSTALCODE": "360017", "LAT": 43.48292, "LNG": 43.59284, "ACCESS_LAT": 43.48269, "ACCESS_LNG": 43.59309, "RESULT_TYPE": "houseNumber", "HOUSE_NUMBER_TYPE": "PA", "QUERY_SCORE": 1.0, "CITY_SCORE": 1.0, "STREET_SCORE": 1.0, "HOUSE_NUMBER_SCORE": 1.0, "distances": 3.0 }, "geometry": { "type": "LineString", "coordinates": [ [ 43.5928155, 43.482943074534965 ], [ 43.59284, 43.48292 ] ] } },
{ "type": "Feature", "properties": { "ADDRESS": "Наро-Фоминск, ул. Ефремова, д. 9В", "ORIGINAL_LAT": 55.387126069337853, "ORIGINAL_LNG": 36.7418675, "LABEL": "улица Ефремова 9В, Наро-Фоминский район, Россия, 143302", "COUNTRY": "Россия", "ADMIN3": "Московская область", "CITY": "Наро-Фоминский район", "POSTALCODE": "143302", "LAT": 55.38719, "LNG": 36.74199, "ACCESS_LAT": 55.38713, "ACCESS_LNG": 36.74154, "RESULT_TYPE": "houseNumber", "HOUSE_NUMBER_TYPE": "PA", "QUERY_SCORE": 1.0, "CITY_SCORE": null, "STREET_SCORE": 1.0, "HOUSE_NUMBER_SCORE": 1.0, "distances": 11.0 }, "geometry": { "type": "LineString", "coordinates": [ [ 36.7418675, 55.387126069337853 ], [ 36.74199, 55.38719 ] ] } },
{ "type": "Feature", "properties": { "ADDRESS": "Нарткала, ул. Кабардинская, д. 147Е", "ORIGINAL_LAT": 43.5495400745571, "ORIGINAL_LNG": 43.845772, "LABEL": "Кабардинская улица 147е, Урванский район, Россия", "COUNTRY": "Россия", "ADMIN3": "Кабардино-Балкарская Республика", "CITY": "Урванский район", "POSTALCODE": null, "LAT": 43.54963, "LNG": 43.84593, "ACCESS_LAT": 43.54973, "ACCESS_LNG": 43.8458, "RESULT_TYPE": "houseNumber", "HOUSE_NUMBER_TYPE": "interpolated", "QUERY_SCORE": 0.96, "CITY_SCORE": null, "STREET_SCORE": 1.0, "HOUSE_NUMBER_SCORE": 1.0, "distances": 16.0 }, "geometry": { "type": "LineString", "coordinates": [ [ 43.845772, 43.5495400745571 ], [ 43.84593, 43.54963 ] ] } },
{ "type": "Feature", "properties": { "ADDRESS": "Нахабино, ул. Королева, д. 5", "ORIGINAL_LAT": 55.851090434028123, "ORIGINAL_LNG": 37.193189338754735, "LABEL": "улица Королёва 5, Красногорский район, Россия, 143430", "COUNTRY": "Россия", "ADMIN3": "Московская область", "CITY": "Красногорский район", "POSTALCODE": "143430", "LAT": 55.85085, "LNG": 37.19334, "ACCESS_LAT": 55.85073, "ACCESS_LNG": 37.19319, "RESULT_TYPE": "houseNumber", "HOUSE_NUMBER_TYPE": "PA", "QUERY_SCORE": 1.0, "CITY_SCORE": null, "STREET_SCORE": 1.0, "HOUSE_NUMBER_SCORE": 1.0, "distances": 28.0 }, "geometry": { "type": "LineString", "coordinates": [ [ 37.193189338754735, 55.851090434028123 ], [ 37.19334, 55.85085 ] ] } },
{ "type": "Feature", "properties": { "ADDRESS": "Нахабино, ул. Чкалова, д. 5", "ORIGINAL_LAT": 55.838490568920989, "ORIGINAL_LNG": 37.1836145, "LABEL": "улица Чкалова 5, Красногорский район, Россия, 143432", "COUNTRY": "Россия", "ADMIN3": "Московская область", "CITY": "Красногорский район", "POSTALCODE": "143432", "LAT": 55.83847, "LNG": 37.18361, "ACCESS_LAT": 55.83831, "ACCESS_LNG": 37.18362, "RESULT_TYPE": "houseNumber", "HOUSE_NUMBER_TYPE": "PA", "QUERY_SCORE": 1.0, "CITY_SCORE": null, "STREET_SCORE": 1.0, "HOUSE_NUMBER_SCORE": 1.0, "distances": 2.0 }, "geometry": { "type": "LineString", "coordinates": [ [ 37.183614499999962, 55.838490568920989 ], [ 37.18361, 55.83847 ] ] } },
{ "type": "Feature", "properties": { "ADDRESS": "Невинномысск, ул. Павлова, д. 1Г", "ORIGINAL_LAT": 44.640262074597928, "ORIGINAL_LNG": 41.930932, "LABEL": "улица Павлова 1г, Невинномысск, Россия, 357108", "COUNTRY": "Россия", "ADMIN3": "Ставропольский край", "CITY": "Невинномысск", "POSTALCODE": "357108", "LAT": 44.63982, "LNG": 41.93059, "ACCESS_LAT": 44.6397, "ACCESS_LNG": 41.93066, "RESULT_TYPE": "houseNumber", "HOUSE_NUMBER_TYPE": "interpolated", "QUERY_SCORE": 0.96, "CITY_SCORE": 1.0, "STREET_SCORE": 1.0, "HOUSE_NUMBER_SCORE": 1.0, "distances": 56.0 }, "geometry": { "type": "LineString", "coordinates": [ [ 41.930932, 44.640262074597928 ], [ 41.93059, 44.63982 ] ] } },
{ "type": "Feature", "properties": { "ADDRESS": "Нижневартовск, ул. Нефтяников, д. 15", "ORIGINAL_LAT": 60.939371062799729, "ORIGINAL_LNG": 76.576653, "LABEL": "улица Нефтяников 15, Нижневартовск, Россия, 628616", "COUNTRY": "Россия", "ADMIN3": "Ханты-Мансийский автономный округ", "CITY": "Нижневартовск", "POSTALCODE": "628616", "LAT": 60.93937, "LNG": 76.5766, "ACCESS_LAT": 60.93921, "ACCESS_LNG": 76.57722, "RESULT_TYPE": "houseNumber", "HOUSE_NUMBER_TYPE": "PA", "QUERY_SCORE": 1.0, "CITY_SCORE": 1.0, "STREET_SCORE": 1.0, "HOUSE_NUMBER_SCORE": 1.0, "distances": 3.0 }, "geometry": { "type": "LineString", "coordinates": [ [ 76.576653, 60.939371062799729 ], [ 76.5766, 60.93937 ] ] } },
{ "type": "Feature", "properties": { "ADDRESS": "Новомосковск, ул. Свердлова\/Садовского, д. 38\/40", "ORIGINAL_LAT": 54.015766, "ORIGINAL_LNG": 38.300876, "LABEL": "улица Садовского 38\/39, Новомосковск, Россия, 301650", "COUNTRY": "Россия", "ADMIN3": "Тульская область", "CITY": "Новомосковск", "POSTALCODE": "301650", "LAT": 54.01599, "LNG": 38.30006, "ACCESS_LAT": 54.01631, "ACCESS_LNG": 38.30006, "RESULT_TYPE": "houseNumber", "HOUSE_NUMBER_TYPE": "PA", "QUERY_SCORE": 0.75, "CITY_SCORE": 1.0, "STREET_SCORE": 1.0, "HOUSE_NUMBER_SCORE": 0.99, "distances": 59.0 }, "geometry": { "type": "LineString", "coordinates": [ [ 38.300876, 54.015766 ], [ 38.30006, 54.01599 ] ] } },
{ "type": "Feature", "properties": { "ADDRESS": "Новосибирск, ул. Коммунистическая, д. 77", "ORIGINAL_LAT": 55.024811569679997, "ORIGINAL_LNG": 82.932997, "LABEL": "Коммунистическая улица 77, Новосибирск, Россия, 630007", "COUNTRY": "Россия", "ADMIN3": "Новосибирская область", "CITY": "Новосибирск", "POSTALCODE": "630007", "LAT": 55.02479, "LNG": 82.93297, "ACCESS_LAT": 55.02451, "ACCESS_LNG": 82.93305, "RESULT_TYPE": "houseNumber", "HOUSE_NUMBER_TYPE": "PA", "QUERY_SCORE": 1.0, "CITY_SCORE": 1.0, "STREET_SCORE": 1.0, "HOUSE_NUMBER_SCORE": 1.0, "distances": 3.0 }, "geometry": { "type": "LineString", "coordinates": [ [ 82.932997, 55.024811569679997 ], [ 82.93297, 55.02479 ] ] } },
{ "type": "Feature", "properties": { "ADDRESS": "Новый Уренгой, Тундровый микрорайон, д. 2", "ORIGINAL_LAT": 66.081064554742426, "ORIGINAL_LNG": 76.638403, "LABEL": "Тундровый микрорайон 2, Новый Уренгой, Россия, 629350", "COUNTRY": "Россия", "ADMIN3": "Ямало-Ненецкий автономный округ", "CITY": "Новый Уренгой", "POSTALCODE": "629350", "LAT": 66.0813, "LNG": 76.63774, "ACCESS_LAT": 66.0813, "ACCESS_LNG": 76.63777, "RESULT_TYPE": "houseNumber", "HOUSE_NUMBER_TYPE": "PA", "QUERY_SCORE": 1.0, "CITY_SCORE": 1.0, "STREET_SCORE": 1.0, "HOUSE_NUMBER_SCORE": 1.0, "distances": 40.0 }, "geometry": { "type": "LineString", "coordinates": [ [ 76.638403, 66.081064554742426 ], [ 76.63774, 66.0813 ] ] } },
{ "type": "Feature", "properties": { "ADDRESS": "Ногинск, ул. 3-его Интернационала, д. 39", "ORIGINAL_LAT": 55.857085070499728, "ORIGINAL_LNG": 38.450286320098797, "LABEL": "улица 3-го Интернационала 39, Ногинский район, Россия, 142400", "COUNTRY": "Россия", "ADMIN3": "Московская область", "CITY": "Ногинский район", "POSTALCODE": "142400", "LAT": 55.85753, "LNG": 38.44848, "ACCESS_LAT": 55.85739, "ACCESS_LNG": 38.44849, "RESULT_TYPE": "houseNumber", "HOUSE_NUMBER_TYPE": "interpolated", "QUERY_SCORE": 0.93, "CITY_SCORE": null, "STREET_SCORE": 1.0, "HOUSE_NUMBER_SCORE": 1.0, "distances": 123.0 }, "geometry": { "type": "LineString", "coordinates": [ [ 38.450286320098797, 55.857085070499728 ], [ 38.44848, 55.85753 ] ] } },
{ "type": "Feature", "properties": { "ADDRESS": "Ногинск, ул. Белякова, д. 35А", "ORIGINAL_LAT": 55.861130568859842, "ORIGINAL_LNG": 38.44095, "LABEL": "улица Белякова 35А, Ногинский район, Россия, 142400", "COUNTRY": "Россия", "ADMIN3": "Московская область", "CITY": "Ногинский район", "POSTALCODE": "142400", "LAT": 55.86108, "LNG": 38.44105, "ACCESS_LAT": 55.86085, "ACCESS_LNG": 38.44096, "RESULT_TYPE": "houseNumber", "HOUSE_NUMBER_TYPE": "PA", "QUERY_SCORE": 1.0, "CITY_SCORE": null, "STREET_SCORE": 1.0, "HOUSE_NUMBER_SCORE": 1.0, "distances": 8.0 }, "geometry": { "type": "LineString", "coordinates": [ [ 38.44095, 55.861130568859842 ], [ 38.44105, 55.86108 ] ] } },
{ "type": "Feature", "properties": { "ADDRESS": "Одинцово,  ул. Гвардейская, д. 11 ", "ORIGINAL_LAT": 55.655881608627432, "ORIGINAL_LNG": 37.22945981772272, "LABEL": "Гвардейская улица 11, Волгоград, Россия, 400127", "COUNTRY": "Россия", "ADMIN3": "Волгоградская область", "CITY": "Волгоград", "POSTALCODE": "400127", "LAT": 48.76276, "LNG": 44.53121, "ACCESS_LAT": 48.76285, "ACCESS_LNG": 44.53136, "RESULT_TYPE": "houseNumber", "HOUSE_NUMBER_TYPE": "PA", "QUERY_SCORE": 0.67, "CITY_SCORE": null, "STREET_SCORE": 1.0, "HOUSE_NUMBER_SCORE": 1.0, "distances": 914007.0 }, "geometry": { "type": "LineString", "coordinates": [ [ 37.22945981772272, 55.655881608627432 ], [ 44.53121, 48.76276 ] ] } },
{ "type": "Feature", "properties": { "ADDRESS": "Одинцово, Можайское шоссе, д. 165", "ORIGINAL_LAT": 55.688649, "ORIGINAL_LNG": 37.307088, "LABEL": "Можайское шоссе 165, Одинцовский район, Россия, 143005", "COUNTRY": "Россия", "ADMIN3": "Московская область", "CITY": "Одинцовский район", "POSTALCODE": "143005", "LAT": 55.6885, "LNG": 37.30703, "ACCESS_LAT": 55.68857, "ACCESS_LNG": 37.30733, "RESULT_TYPE": "houseNumber", "HOUSE_NUMBER_TYPE": "PA", "QUERY_SCORE": 1.0, "CITY_SCORE": null, "STREET_SCORE": 1.0, "HOUSE_NUMBER_SCORE": 1.0, "distances": 17.0 }, "geometry": { "type": "LineString", "coordinates": [ [ 37.307088, 55.688649 ], [ 37.30703, 55.6885 ] ] } },
{ "type": "Feature", "properties": { "ADDRESS": "Одинцово, ул. Сколковская, д. 1Б", "ORIGINAL_LAT": 55.695123569029377, "ORIGINAL_LNG": 37.324515, "LABEL": "Сколковская улица 1Б, Одинцовский район, Россия, 143005", "COUNTRY": "Россия", "ADMIN3": "Московская область", "CITY": "Одинцовский район", "POSTALCODE": "143005", "LAT": 55.69495, "LNG": 37.32463, "ACCESS_LAT": 55.69502, "ACCESS_LNG": 37.32346, "RESULT_TYPE": "houseNumber", "HOUSE_NUMBER_TYPE": "PA", "QUERY_SCORE": 1.0, "CITY_SCORE": null, "STREET_SCORE": 1.0, "HOUSE_NUMBER_SCORE": 1.0, "distances": 21.0 }, "geometry": { "type": "LineString", "coordinates": [ [ 37.324515, 55.695123569029377 ], [ 37.32463, 55.69495 ] ] } },
{ "type": "Feature", "properties": { "ADDRESS": "Омск, ул. Заозерная, д. 21", "ORIGINAL_LAT": 55.039310569658163, "ORIGINAL_LNG": 73.313100499999848, "LABEL": "Заозёрная улица 21, Омск, Россия, 644090", "COUNTRY": "Россия", "ADMIN3": "Омская область", "CITY": "Омск", "POSTALCODE": "644090", "LAT": 55.03926, "LNG": 73.31316, "ACCESS_LAT": 55.03922, "ACCESS_LNG": 73.31341, "RESULT_TYPE": "houseNumber", "HOUSE_NUMBER_TYPE": "PA", "QUERY_SCORE": 1.0, "CITY_SCORE": 1.0, "STREET_SCORE": 1.0, "HOUSE_NUMBER_SCORE": 1.0, "distances": 7.0 }, "geometry": { "type": "LineString", "coordinates": [ [ 73.313100499999848, 55.039310569658163 ], [ 73.31316, 55.03926 ] ] } },
{ "type": "Feature", "properties": { "ADDRESS": "Орел, Бульвар Победы, д. 2А", "ORIGINAL_LAT": 52.972453071380663, "ORIGINAL_LNG": 36.0616005, "LABEL": "бульвар Победы 2А, Йошкар-Ола, Россия, 424000", "COUNTRY": "Россия", "ADMIN3": "Республика Марий Эл", "CITY": "Йошкар-Ола", "POSTALCODE": "424000", "LAT": 56.63795, "LNG": 47.88451, "ACCESS_LAT": 56.6378, "ACCESS_LNG": 47.88442, "RESULT_TYPE": "houseNumber", "HOUSE_NUMBER_TYPE": "PA", "QUERY_SCORE": 0.8, "CITY_SCORE": null, "STREET_SCORE": 1.0, "HOUSE_NUMBER_SCORE": 1.0, "distances": 861240.0 }, "geometry": { "type": "LineString", "coordinates": [ [ 36.061600499999948, 52.972453071380663 ], [ 47.88451, 56.63795 ] ] } },
{ "type": "Feature", "properties": { "ADDRESS": "Оренбург, ул. Джангильдина, д. 3", "ORIGINAL_LAT": 51.828336072215095, "ORIGINAL_LNG": 55.1559655, "LABEL": "улица Джангильдина 3, Оренбург, Россия, 460052", "COUNTRY": "Россия", "ADMIN3": "Оренбургская область", "CITY": "Оренбург", "POSTALCODE": "460052", "LAT": 51.82803, "LNG": 55.15569, "ACCESS_LAT": 51.82787, "ACCESS_LNG": 55.15541, "RESULT_TYPE": "houseNumber", "HOUSE_NUMBER_TYPE": "PA", "QUERY_SCORE": 1.0, "CITY_SCORE": 1.0, "STREET_SCORE": 1.0, "HOUSE_NUMBER_SCORE": 1.0, "distances": 39.0 }, "geometry": { "type": "LineString", "coordinates": [ [ 55.155965499999965, 51.828336072215095 ], [ 55.15569, 51.82803 ] ] } },
{ "type": "Feature", "properties": { "ADDRESS": "Орск, проспект Ленина, д. 36", "ORIGINAL_LAT": 51.232959, "ORIGINAL_LNG": 58.4739522, "LABEL": "проспект Ленина 36, Орск, Россия, 462420", "COUNTRY": "Россия", "ADMIN3": "Оренбургская область", "CITY": "Орск", "POSTALCODE": "462420", "LAT": 51.2331, "LNG": 58.47364, "ACCESS_LAT": 51.23306, "ACCESS_LNG": 58.47345, "RESULT_TYPE": "houseNumber", "HOUSE_NUMBER_TYPE": "PA", "QUERY_SCORE": 1.0, "CITY_SCORE": 1.0, "STREET_SCORE": 1.0, "HOUSE_NUMBER_SCORE": 1.0, "distances": 27.0 }, "geometry": { "type": "LineString", "coordinates": [ [ 58.4739522, 51.232959 ], [ 58.47364, 51.2331 ] ] } },
{ "type": "Feature", "properties": { "ADDRESS": "Печора, Печорский проспект, д. 90ж", "ORIGINAL_LAT": 65.1292309, "ORIGINAL_LNG": 57.1634371, "LABEL": "Печорский проспект 90ж, Печора, Россия, 169600", "COUNTRY": "Россия", "ADMIN3": "Республика Коми", "CITY": "Печора", "POSTALCODE": "169600", "LAT": 65.12941, "LNG": 57.16237, "ACCESS_LAT": 65.12941, "ACCESS_LNG": 57.16205, "RESULT_TYPE": "houseNumber", "HOUSE_NUMBER_TYPE": "interpolated", "QUERY_SCORE": 0.96, "CITY_SCORE": 1.0, "STREET_SCORE": 1.0, "HOUSE_NUMBER_SCORE": 1.0, "distances": 54.0 }, "geometry": { "type": "LineString", "coordinates": [ [ 57.1634371, 65.1292309 ], [ 57.16237, 65.12941 ] ] } },
{ "type": "Feature", "properties": { "ADDRESS": "Подольск, проспект 50 лет Октября, д. 11", "ORIGINAL_LAT": 55.375869069368257, "ORIGINAL_LNG": 37.5408025, "LABEL": "проспект 50 лет Октября 11, Подольск, Россия, 142180", "COUNTRY": "Россия", "ADMIN3": "Московская область", "CITY": "Подольск", "POSTALCODE": "142180", "LAT": 55.37586, "LNG": 37.54075, "ACCESS_LAT": 55.37589, "ACCESS_LNG": 37.54042, "RESULT_TYPE": "houseNumber", "HOUSE_NUMBER_TYPE": "PA", "QUERY_SCORE": 1.0, "CITY_SCORE": 1.0, "STREET_SCORE": 1.0, "HOUSE_NUMBER_SCORE": 1.0, "distances": 3.0 }, "geometry": { "type": "LineString", "coordinates": [ [ 37.540802499999934, 55.375869069368257 ], [ 37.54075, 55.37586 ] ] } },
{ "type": "Feature", "properties": { "ADDRESS": "Подольск, ул. Рабочая, д. 16\/33", "ORIGINAL_LAT": 55.432076069275219, "ORIGINAL_LNG": 37.556379, "LABEL": "Рабочая улица 16\/33, Подольск, Россия, 142116", "COUNTRY": "Россия", "ADMIN3": "Московская область", "CITY": "Подольск", "POSTALCODE": "142116", "LAT": 55.43207, "LNG": 37.55636, "ACCESS_LAT": 55.43216, "ACCESS_LNG": 37.5561, "RESULT_TYPE": "houseNumber", "HOUSE_NUMBER_TYPE": "PA", "QUERY_SCORE": 1.0, "CITY_SCORE": 1.0, "STREET_SCORE": 1.0, "HOUSE_NUMBER_SCORE": 1.0, "distances": 1.0 }, "geometry": { "type": "LineString", "coordinates": [ [ 37.556379, 55.432076069275219 ], [ 37.55636, 55.43207 ] ] } },
{ "type": "Feature", "properties": { "ADDRESS": "Подольск,  ул. Ленинградская, д. 11", "ORIGINAL_LAT": 55.42546078, "ORIGINAL_LNG": 37.497279, "LABEL": "Ленинградская улица 11, Подольск, Россия, 142121", "COUNTRY": "Россия", "ADMIN3": "Московская область", "CITY": "Подольск", "POSTALCODE": "142121", "LAT": 55.42553, "LNG": 37.49736, "ACCESS_LAT": 55.42539, "ACCESS_LNG": 37.49747, "RESULT_TYPE": "houseNumber", "HOUSE_NUMBER_TYPE": "PA", "QUERY_SCORE": 1.0, "CITY_SCORE": 1.0, "STREET_SCORE": 1.0, "HOUSE_NUMBER_SCORE": 1.0, "distances": 9.0 }, "geometry": { "type": "LineString", "coordinates": [ [ 37.497279, 55.42546078 ], [ 37.49736, 55.42553 ] ] } },
{ "type": "Feature", "properties": { "ADDRESS": "Подольск, ул. Свердлова, д. 21", "ORIGINAL_LAT": 55.423775, "ORIGINAL_LNG": 37.539185, "LABEL": "улица Свердлова 21, Подольск, Россия, 142114", "COUNTRY": "Россия", "ADMIN3": "Московская область", "CITY": "Подольск", "POSTALCODE": "142114", "LAT": 55.42379, "LNG": 37.53918, "ACCESS_LAT": 55.42393, "ACCESS_LNG": 37.53871, "RESULT_TYPE": "houseNumber", "HOUSE_NUMBER_TYPE": "PA", "QUERY_SCORE": 1.0, "CITY_SCORE": 1.0, "STREET_SCORE": 1.0, "HOUSE_NUMBER_SCORE": 1.0, "distances": 2.0 }, "geometry": { "type": "LineString", "coordinates": [ [ 37.539185, 55.423775 ], [ 37.53918, 55.42379 ] ] } },
{ "type": "Feature", "properties": { "ADDRESS": "Путилково, ул. Новотушинская, д. 2", "ORIGINAL_LAT": 55.868487742981458, "ORIGINAL_LNG": 37.396955711639372, "LABEL": "Новотушинская улица 2, Красногорский район, Россия, 143441", "COUNTRY": "Россия", "ADMIN3": "Московская область", "CITY": "Красногорский район", "POSTALCODE": "143441", "LAT": 55.86817, "LNG": 37.39718, "ACCESS_LAT": 55.86776, "ACCESS_LNG": 37.3971, "RESULT_TYPE": "houseNumber", "HOUSE_NUMBER_TYPE": "PA", "QUERY_SCORE": 1.0, "CITY_SCORE": null, "STREET_SCORE": 1.0, "HOUSE_NUMBER_SCORE": 1.0, "distances": 38.0 }, "geometry": { "type": "LineString", "coordinates": [ [ 37.396955711639372, 55.868487742981458 ], [ 37.39718, 55.86817 ] ] } },
{ "type": "Feature", "properties": { "ADDRESS": "Пушкино, Московский проспект, д. 57, корп. 1", "ORIGINAL_LAT": 55.997596181372039, "ORIGINAL_LNG": 37.860713957672097, "LABEL": "Московский проспект 57 корп 1, Пушкинский район, Россия, 141205", "COUNTRY": "Россия", "ADMIN3": "Московская область", "CITY": "Пушкинский район", "POSTALCODE": "141205", "LAT": 55.9976, "LNG": 37.8602, "ACCESS_LAT": 55.99762, "ACCESS_LNG": 37.85965, "RESULT_TYPE": "houseNumber", "HOUSE_NUMBER_TYPE": "PA", "QUERY_SCORE": 1.0, "CITY_SCORE": null, "STREET_SCORE": 1.0, "HOUSE_NUMBER_SCORE": 1.0, "distances": 32.0 }, "geometry": { "type": "LineString", "coordinates": [ [ 37.860713957672097, 55.997596181372039 ], [ 37.8602, 55.9976 ] ] } },
{ "type": "Feature", "properties": { "ADDRESS": "Пушкино, ул. Просвещения, д. 13, корп. 3", "ORIGINAL_LAT": 56.027776068720662, "ORIGINAL_LNG": 37.855275499999891, "LABEL": "улица Просвещения 13 корп 3, Пушкинский район, Россия, 141207", "COUNTRY": "Россия", "ADMIN3": "Московская область", "CITY": "Пушкинский район", "POSTALCODE": "141207", "LAT": 56.02771, "LNG": 37.85519, "ACCESS_LAT": 56.02773, "ACCESS_LNG": 37.85484, "RESULT_TYPE": "houseNumber", "HOUSE_NUMBER_TYPE": "PA", "QUERY_SCORE": 1.0, "CITY_SCORE": null, "STREET_SCORE": 1.0, "HOUSE_NUMBER_SCORE": 1.0, "distances": 9.0 }, "geometry": { "type": "LineString", "coordinates": [ [ 37.855275499999891, 56.027776068720662 ], [ 37.85519, 56.02771 ] ] } },
{ "type": "Feature", "properties": { "ADDRESS": "Раменское, ул. Приборостроителей, д. 1а", "ORIGINAL_LAT": 55.57701678, "ORIGINAL_LNG": 38.2514415, "LABEL": "улица Приборостроителей 1А, Раменский район, Россия, 140103", "COUNTRY": "Россия", "ADMIN3": "Московская область", "CITY": "Раменский район", "POSTALCODE": "140103", "LAT": 55.57665, "LNG": 38.25238, "ACCESS_LAT": 55.57773, "ACCESS_LNG": 38.25162, "RESULT_TYPE": "houseNumber", "HOUSE_NUMBER_TYPE": "PA", "QUERY_SCORE": 1.0, "CITY_SCORE": null, "STREET_SCORE": 1.0, "HOUSE_NUMBER_SCORE": 1.0, "distances": 72.0 }, "geometry": { "type": "LineString", "coordinates": [ [ 38.2514415, 55.57701678 ], [ 38.25238, 55.57665 ] ] } },
{ "type": "Feature", "properties": { "ADDRESS": "Раменское, ул.Чугунова, д. 11\/1", "ORIGINAL_LAT": 55.575042069167225, "ORIGINAL_LNG": 38.210074, "LABEL": "улица Чугунова 11\/1, Раменский район, Россия, 140105", "COUNTRY": "Россия", "ADMIN3": "Московская область", "CITY": "Раменский район", "POSTALCODE": "140105", "LAT": 55.57501, "LNG": 38.21008, "ACCESS_LAT": 55.57532, "ACCESS_LNG": 38.21061, "RESULT_TYPE": "houseNumber", "HOUSE_NUMBER_TYPE": "PA", "QUERY_SCORE": 1.0, "CITY_SCORE": null, "STREET_SCORE": 1.0, "HOUSE_NUMBER_SCORE": 1.0, "distances": 4.0 }, "geometry": { "type": "LineString", "coordinates": [ [ 38.210074, 55.575042069167225 ], [ 38.21008, 55.57501 ] ] } },
{ "type": "Feature", "properties": { "ADDRESS": "Реутов, ул. Новая, д. 3", "ORIGINAL_LAT": 55.757506, "ORIGINAL_LNG": 37.852006, "LABEL": "Новая улица 3, Реутов, Россия, 143966", "COUNTRY": "Россия", "ADMIN3": "Московская область", "CITY": "Реутов", "POSTALCODE": "143966", "LAT": 55.75747, "LNG": 37.85196, "ACCESS_LAT": 55.75728, "ACCESS_LNG": 37.85206, "RESULT_TYPE": "houseNumber", "HOUSE_NUMBER_TYPE": "PA", "QUERY_SCORE": 1.0, "CITY_SCORE": 1.0, "STREET_SCORE": 1.0, "HOUSE_NUMBER_SCORE": 1.0, "distances": 5.0 }, "geometry": { "type": "LineString", "coordinates": [ [ 37.852006, 55.757506 ], [ 37.85196, 55.75747 ] ] } },
{ "type": "Feature", "properties": { "ADDRESS": "Реутов, Юбилейный проспект, д. 61", "ORIGINAL_LAT": 55.753995469790894, "ORIGINAL_LNG": 37.882731779762288, "LABEL": "Юбилейный проспект 61, Реутов, Россия, 143969", "COUNTRY": "Россия", "ADMIN3": "Московская область", "CITY": "Реутов", "POSTALCODE": "143969", "LAT": 55.75377, "LNG": 37.88271, "ACCESS_LAT": 55.75396, "ACCESS_LNG": 37.883, "RESULT_TYPE": "houseNumber", "HOUSE_NUMBER_TYPE": "PA", "QUERY_SCORE": 1.0, "CITY_SCORE": 1.0, "STREET_SCORE": 1.0, "HOUSE_NUMBER_SCORE": 1.0, "distances": 25.0 }, "geometry": { "type": "LineString", "coordinates": [ [ 37.882731779762288, 55.753995469790894 ], [ 37.88271, 55.75377 ] ] } },
{ "type": "Feature", "properties": { "ADDRESS": "Рязань, ул. Мервинская, д. 30", "ORIGINAL_LAT": 54.633345478502463, "ORIGINAL_LNG": 39.673083817127143, "LABEL": "Мервинская улица 30, Рязань, Россия, 390044", "COUNTRY": "Россия", "ADMIN3": "Рязанская область", "CITY": "Рязань", "POSTALCODE": "390044", "LAT": 54.63382, "LNG": 39.672, "ACCESS_LAT": 54.63363, "ACCESS_LNG": 39.67174, "RESULT_TYPE": "houseNumber", "HOUSE_NUMBER_TYPE": "PA", "QUERY_SCORE": 1.0, "CITY_SCORE": 1.0, "STREET_SCORE": 1.0, "HOUSE_NUMBER_SCORE": 1.0, "distances": 88.0 }, "geometry": { "type": "LineString", "coordinates": [ [ 39.673083817127143, 54.633345478502463 ], [ 39.672, 54.63382 ] ] } },
{ "type": "Feature", "properties": { "ADDRESS": "Санкт-Петербург, Проспект Науки, д. 17, корп. 6", "ORIGINAL_LAT": 60.014050064054871, "ORIGINAL_LNG": 30.391551, "LABEL": "проспект Науки 17 корп 6, Санкт-Петербург, Россия, 195220", "COUNTRY": "Россия", "ADMIN3": "Санкт-Петербург", "CITY": "Санкт-Петербург", "POSTALCODE": "195220", "LAT": 60.01406, "LNG": 30.39168, "ACCESS_LAT": 60.01448, "ACCESS_LNG": 30.392, "RESULT_TYPE": "houseNumber", "HOUSE_NUMBER_TYPE": "PA", "QUERY_SCORE": 1.0, "CITY_SCORE": 1.0, "STREET_SCORE": 1.0, "HOUSE_NUMBER_SCORE": 1.0, "distances": 7.0 }, "geometry": { "type": "LineString", "coordinates": [ [ 30.391551, 60.014050064054871 ], [ 30.39168, 60.01406 ] ] } },
{ "type": "Feature", "properties": { "ADDRESS": "Саранск, ул. Полежаева, д. 58", "ORIGINAL_LAT": 54.189545570414751, "ORIGINAL_LNG": 45.1741375, "LABEL": "улица Полежаева 58, Саранск, Россия, 430016", "COUNTRY": "Россия", "ADMIN3": "Республика Мордовия", "CITY": "Саранск", "POSTALCODE": "430016", "LAT": 54.18954, "LNG": 45.17414, "ACCESS_LAT": 54.18975, "ACCESS_LNG": 45.17416, "RESULT_TYPE": "houseNumber", "HOUSE_NUMBER_TYPE": "PA", "QUERY_SCORE": 1.0, "CITY_SCORE": 1.0, "STREET_SCORE": 1.0, "HOUSE_NUMBER_SCORE": 1.0, "distances": 1.0 }, "geometry": { "type": "LineString", "coordinates": [ [ 45.174137499999972, 54.189545570414751 ], [ 45.17414, 54.18954 ] ] } },
{ "type": "Feature", "properties": { "ADDRESS": "Саратов, ул. им. А.М. Горького, д. 28", "ORIGINAL_LAT": 51.529925572382837, "ORIGINAL_LNG": 46.0295045, "LABEL": "Горького 28, Саратов, Россия, 410012", "COUNTRY": "Россия", "ADMIN3": "Саратовская область", "CITY": "Саратов", "POSTALCODE": "410012", "LAT": 51.52996, "LNG": 46.02968, "ACCESS_LAT": 51.52995, "ACCESS_LNG": 46.02972, "RESULT_TYPE": "houseNumber", "HOUSE_NUMBER_TYPE": "PA", "QUERY_SCORE": 0.75, "CITY_SCORE": 1.0, "STREET_SCORE": 1.0, "HOUSE_NUMBER_SCORE": 1.0, "distances": 13.0 }, "geometry": { "type": "LineString", "coordinates": [ [ 46.029504499999973, 51.529925572382837 ], [ 46.02968, 51.52996 ] ] } },
{ "type": "Feature", "properties": { "ADDRESS": "Свердловский, ул. Молодежная, д. 1", "ORIGINAL_LAT": 55.900698068812304, "ORIGINAL_LNG": 38.1524295, "LABEL": "Молодёжная улица 1, Щёлковский район, Россия, 141140", "COUNTRY": "Россия", "ADMIN3": "Московская область", "CITY": "Щёлковский район", "POSTALCODE": "141140", "LAT": 55.90072, "LNG": 38.15245, "ACCESS_LAT": 55.90065, "ACCESS_LNG": 38.15212, "RESULT_TYPE": "houseNumber", "HOUSE_NUMBER_TYPE": "PA", "QUERY_SCORE": 1.0, "CITY_SCORE": null, "STREET_SCORE": 1.0, "HOUSE_NUMBER_SCORE": 1.0, "distances": 3.0 }, "geometry": { "type": "LineString", "coordinates": [ [ 38.1524295, 55.900698068812304 ], [ 38.15245, 55.90072 ] ] } },
{ "type": "Feature", "properties": { "ADDRESS": "Севастополь, проспект Октябрьской Революции, д. 67", "ORIGINAL_LAT": 44.5893153, "ORIGINAL_LNG": 33.4630975, "LABEL": "Жовтневої Революції проспект, 67, Севастополь, 299038, Україна", "COUNTRY": "Україна", "ADMIN3": "Севастополь", "CITY": "Севастополь", "POSTALCODE": "299038", "LAT": 44.58931, "LNG": 33.46314, "ACCESS_LAT": 44.58931, "ACCESS_LNG": 33.46339, "RESULT_TYPE": "houseNumber", "HOUSE_NUMBER_TYPE": "PA", "QUERY_SCORE": 1.0, "CITY_SCORE": 1.0, "STREET_SCORE": 1.0, "HOUSE_NUMBER_SCORE": 1.0, "distances": 3.0 }, "geometry": { "type": "LineString", "coordinates": [ [ 33.4630975, 44.5893153 ], [ 33.46314, 44.58931 ] ] } },
{ "type": "Feature", "properties": { "ADDRESS": "Севастополь, ул. Партизанская, д. 5", "ORIGINAL_LAT": 44.6101803, "ORIGINAL_LNG": 33.5167455, "LABEL": "Партизанська вулиця, 5, Севастополь, 299011, Україна", "COUNTRY": "Україна", "ADMIN3": "Севастополь", "CITY": "Севастополь", "POSTALCODE": "299011", "LAT": 44.61018, "LNG": 33.51673, "ACCESS_LAT": 44.61036, "ACCESS_LNG": 33.51663, "RESULT_TYPE": "houseNumber", "HOUSE_NUMBER_TYPE": "PA", "QUERY_SCORE": 1.0, "CITY_SCORE": 1.0, "STREET_SCORE": 1.0, "HOUSE_NUMBER_SCORE": 1.0, "distances": 1.0 }, "geometry": { "type": "LineString", "coordinates": [ [ 33.5167455, 44.6101803 ], [ 33.51673, 44.61018 ] ] } },
{ "type": "Feature", "properties": { "ADDRESS": "Сергиев Посад, ул. Дружбы, д. 9А", "ORIGINAL_LAT": 56.330244502809101, "ORIGINAL_LNG": 38.144897686508166, "LABEL": "улица Дружбы 9А, Сергиево-Посадский район, Россия, 141301", "COUNTRY": "Россия", "ADMIN3": "Московская область", "CITY": "Сергиево-Посадский район", "POSTALCODE": "141301", "LAT": 56.3294, "LNG": 38.14495, "ACCESS_LAT": 56.32942, "ACCESS_LNG": 38.14465, "RESULT_TYPE": "houseNumber", "HOUSE_NUMBER_TYPE": "PA", "QUERY_SCORE": 1.0, "CITY_SCORE": null, "STREET_SCORE": 1.0, "HOUSE_NUMBER_SCORE": 1.0, "distances": 94.0 }, "geometry": { "type": "LineString", "coordinates": [ [ 38.144897686508166, 56.330244502809101 ], [ 38.14495, 56.3294 ] ] } },
{ "type": "Feature", "properties": { "ADDRESS": "Серпухов, ул. Дружбы, д. 9А", "ORIGINAL_LAT": 56.330244502809101, "ORIGINAL_LNG": 38.144897686508166, "LABEL": "улица Дружбы 9а, Серпухов, Россия, 142214", "COUNTRY": "Россия", "ADMIN3": "Московская область", "CITY": "Серпухов", "POSTALCODE": "142214", "LAT": 54.93632, "LNG": 37.43775, "ACCESS_LAT": 54.93635, "ACCESS_LNG": 37.43798, "RESULT_TYPE": "houseNumber", "HOUSE_NUMBER_TYPE": "interpolated", "QUERY_SCORE": 0.95, "CITY_SCORE": 1.0, "STREET_SCORE": 1.0, "HOUSE_NUMBER_SCORE": 1.0, "distances": 161455.0 }, "geometry": { "type": "LineString", "coordinates": [ [ 38.144897686508166, 56.330244502809101 ], [ 37.43775, 54.93632 ] ] } },
{ "type": "Feature", "properties": { "ADDRESS": "Симферополь, ул. Ленина, д. 4", "ORIGINAL_LAT": 44.950703522621112, "ORIGINAL_LNG": 34.108052060188228, "LABEL": "Леніна вулиця, 4, Сімферополь, 295001, Україна", "COUNTRY": "Україна", "ADMIN3": "Автономна Республіка Крим", "CITY": "Сімферополь", "POSTALCODE": "295001", "LAT": 44.95075, "LNG": 34.10811, "ACCESS_LAT": 44.9506, "ACCESS_LNG": 34.10804, "RESULT_TYPE": "houseNumber", "HOUSE_NUMBER_TYPE": "PA", "QUERY_SCORE": 1.0, "CITY_SCORE": 1.0, "STREET_SCORE": 1.0, "HOUSE_NUMBER_SCORE": 1.0, "distances": 7.0 }, "geometry": { "type": "LineString", "coordinates": [ [ 34.108052060188228, 44.950703522621112 ], [ 34.10811, 44.95075 ] ] } },
{ "type": "Feature", "properties": { "ADDRESS": "Смоленск, проспект Гагарина, д. 29\/1", "ORIGINAL_LAT": 54.761914069918966, "ORIGINAL_LNG": 32.046248, "LABEL": "проспект Гагарина 29\/1, Смоленск, Россия, 214000", "COUNTRY": "Россия", "ADMIN3": "Смоленская область", "CITY": "Смоленск", "POSTALCODE": "214000", "LAT": 54.762, "LNG": 32.04633, "ACCESS_LAT": 54.76204, "ACCESS_LNG": 32.04584, "RESULT_TYPE": "houseNumber", "HOUSE_NUMBER_TYPE": "PA", "QUERY_SCORE": 1.0, "CITY_SCORE": 1.0, "STREET_SCORE": 1.0, "HOUSE_NUMBER_SCORE": 1.0, "distances": 11.0 }, "geometry": { "type": "LineString", "coordinates": [ [ 32.046248, 54.761914069918966 ], [ 32.04633, 54.762 ] ] } },
{ "type": "Feature", "properties": { "ADDRESS": "Смоленск, ул. Лавочкина, д. 47\/1", "ORIGINAL_LAT": 54.804840569881961, "ORIGINAL_LNG": 32.0053745, "LABEL": "улица Лавочкина 47\/1, Смоленск, Россия, 214027", "COUNTRY": "Россия", "ADMIN3": "Смоленская область", "CITY": "Смоленск", "POSTALCODE": "214027", "LAT": 54.80484, "LNG": 32.0055, "ACCESS_LAT": 54.80506, "ACCESS_LNG": 32.00582, "RESULT_TYPE": "houseNumber", "HOUSE_NUMBER_TYPE": "PA", "QUERY_SCORE": 1.0, "CITY_SCORE": 1.0, "STREET_SCORE": 1.0, "HOUSE_NUMBER_SCORE": 1.0, "distances": 8.0 }, "geometry": { "type": "LineString", "coordinates": [ [ 32.005374499999938, 54.804840569881961 ], [ 32.0055, 54.80484 ] ] } },
{ "type": "Feature", "properties": { "ADDRESS": "Смоленск, ул. Юрьева, д. 2", "ORIGINAL_LAT": 54.810922069868106, "ORIGINAL_LNG": 32.0448465, "LABEL": "улица Юрьева 2, Смоленск, Россия, 214006", "COUNTRY": "Россия", "ADMIN3": "Смоленская область", "CITY": "Смоленск", "POSTALCODE": "214006", "LAT": 54.81087, "LNG": 32.04499, "ACCESS_LAT": 54.81103, "ACCESS_LNG": 32.04539, "RESULT_TYPE": "houseNumber", "HOUSE_NUMBER_TYPE": "PA", "QUERY_SCORE": 1.0, "CITY_SCORE": 1.0, "STREET_SCORE": 1.0, "HOUSE_NUMBER_SCORE": 1.0, "distances": 11.0 }, "geometry": { "type": "LineString", "coordinates": [ [ 32.044846499999984, 54.810922069868106 ], [ 32.04499, 54.81087 ] ] } },
{ "type": "Feature", "properties": { "ADDRESS": "Солнечногорск, ул. Юности, д. 2", "ORIGINAL_LAT": 56.17978078, "ORIGINAL_LNG": 37.0032955, "LABEL": "улица Юности 2, Солнечногорский район, Россия, 141508", "COUNTRY": "Россия", "ADMIN3": "Московская область", "CITY": "Солнечногорский район", "POSTALCODE": "141508", "LAT": 56.17984, "LNG": 37.00394, "ACCESS_LAT": 56.17996, "ACCESS_LNG": 37.00408, "RESULT_TYPE": "houseNumber", "HOUSE_NUMBER_TYPE": "PA", "QUERY_SCORE": 1.0, "CITY_SCORE": null, "STREET_SCORE": 1.0, "HOUSE_NUMBER_SCORE": 1.0, "distances": 41.0 }, "geometry": { "type": "LineString", "coordinates": [ [ 37.0032955, 56.17978078 ], [ 37.00394, 56.17984 ] ] } },
{ "type": "Feature", "properties": { "ADDRESS": "Ставрополь, ул. Мира, д. 274", "ORIGINAL_LAT": 45.0379168, "ORIGINAL_LNG": 41.9756816, "LABEL": "улица Мира 274, Ставрополь, Россия, 355017", "COUNTRY": "Россия", "ADMIN3": "Ставропольский край", "CITY": "Ставрополь", "POSTALCODE": "355017", "LAT": 45.03783, "LNG": 41.9757, "ACCESS_LAT": 45.03812, "ACCESS_LNG": 41.97563, "RESULT_TYPE": "houseNumber", "HOUSE_NUMBER_TYPE": "PA", "QUERY_SCORE": 1.0, "CITY_SCORE": 1.0, "STREET_SCORE": 1.0, "HOUSE_NUMBER_SCORE": 1.0, "distances": 10.0 }, "geometry": { "type": "LineString", "coordinates": [ [ 41.9756816, 45.0379168 ], [ 41.9757, 45.03783 ] ] } },
{ "type": "Feature", "properties": { "ADDRESS": "Старая Купавна, ул. Кирова, д. 19", "ORIGINAL_LAT": 55.802740068918602, "ORIGINAL_LNG": 38.1821995, "LABEL": "улица Кирова 19, Ногинский район, Россия, 142450", "COUNTRY": "Россия", "ADMIN3": "Московская область", "CITY": "Ногинский район", "POSTALCODE": "142450", "LAT": 55.80324, "LNG": 38.1817, "ACCESS_LAT": 55.80315, "ACCESS_LNG": 38.18134, "RESULT_TYPE": "houseNumber", "HOUSE_NUMBER_TYPE": "PA", "QUERY_SCORE": 1.0, "CITY_SCORE": null, "STREET_SCORE": 1.0, "HOUSE_NUMBER_SCORE": 1.0, "distances": 64.0 }, "geometry": { "type": "LineString", "coordinates": [ [ 38.182199499999975, 55.802740068918602 ], [ 38.1817, 55.80324 ] ] } },
{ "type": "Feature", "properties": { "ADDRESS": "Ступино, ул. Кирова, д. 19", "ORIGINAL_LAT": 55.802740068918602, "ORIGINAL_LNG": 38.1821995, "LABEL": "улица Кирова 9, Ступинский район, Россия, 142802", "COUNTRY": "Россия", "ADMIN3": "Московская область", "CITY": "Ступинский район", "POSTALCODE": "142802", "LAT": 54.8902, "LNG": 38.06347, "ACCESS_LAT": 54.89018, "ACCESS_LNG": 38.06368, "RESULT_TYPE": "houseNumber", "HOUSE_NUMBER_TYPE": "PA", "QUERY_SCORE": 0.92, "CITY_SCORE": null, "STREET_SCORE": 1.0, "HOUSE_NUMBER_SCORE": 0.9, "distances": 101872.0 }, "geometry": { "type": "LineString", "coordinates": [ [ 38.182199499999975, 55.802740068918602 ], [ 38.06347, 54.8902 ] ] } },
{ "type": "Feature", "properties": { "ADDRESS": "Тверь, Петербургское шоссе, д. 75", "ORIGINAL_LAT": 56.875453, "ORIGINAL_LNG": 35.838162, "LABEL": "Петербургское шоссе 75, Тверь, Россия, 170036", "COUNTRY": "Россия", "ADMIN3": "Тверская область", "CITY": "Тверь", "POSTALCODE": "170036", "LAT": 56.87553, "LNG": 35.83815, "ACCESS_LAT": 56.87544, "ACCESS_LNG": 35.83811, "RESULT_TYPE": "houseNumber", "HOUSE_NUMBER_TYPE": "PA", "QUERY_SCORE": 1.0, "CITY_SCORE": 1.0, "STREET_SCORE": 1.0, "HOUSE_NUMBER_SCORE": 1.0, "distances": 9.0 }, "geometry": { "type": "LineString", "coordinates": [ [ 35.838162, 56.875453 ], [ 35.83815, 56.87553 ] ] } },
{ "type": "Feature", "properties": { "ADDRESS": "Тверь, ул. Рыбацкая, д. 3", "ORIGINAL_LAT": 56.859778067855352, "ORIGINAL_LNG": 35.919559, "LABEL": "Рыбацкая улица 3, Тверь, Россия, 170100", "COUNTRY": "Россия", "ADMIN3": "Тверская область", "CITY": "Тверь", "POSTALCODE": "170100", "LAT": 56.85965, "LNG": 35.91933, "ACCESS_LAT": 56.85953, "ACCESS_LNG": 35.91927, "RESULT_TYPE": "houseNumber", "HOUSE_NUMBER_TYPE": "PA", "QUERY_SCORE": 1.0, "CITY_SCORE": 1.0, "STREET_SCORE": 1.0, "HOUSE_NUMBER_SCORE": 1.0, "distances": 20.0 }, "geometry": { "type": "LineString", "coordinates": [ [ 35.919559, 56.859778067855352 ], [ 35.91933, 56.85965 ] ] } },
{ "type": "Feature", "properties": { "ADDRESS": "Тверь, ул. Софьи Перовской, д. 14", "ORIGINAL_LAT": 56.85914327, "ORIGINAL_LNG": 35.8859975, "LABEL": "улица Софьи Перовской 14, Тверь, Россия, 170006", "COUNTRY": "Россия", "ADMIN3": "Тверская область", "CITY": "Тверь", "POSTALCODE": "170006", "LAT": 56.85907, "LNG": 35.88575, "ACCESS_LAT": 56.85917, "ACCESS_LNG": 35.88558, "RESULT_TYPE": "houseNumber", "HOUSE_NUMBER_TYPE": "PA", "QUERY_SCORE": 1.0, "CITY_SCORE": 1.0, "STREET_SCORE": 1.0, "HOUSE_NUMBER_SCORE": 1.0, "distances": 17.0 }, "geometry": { "type": "LineString", "coordinates": [ [ 35.8859975, 56.85914327 ], [ 35.88575, 56.85907 ] ] } },
{ "type": "Feature", "properties": { "ADDRESS": "Терек, ул. Ленина, д. 51", "ORIGINAL_LAT": 43.485599, "ORIGINAL_LNG": 44.146339, "LABEL": "улица Ленина 51, Терский район, Россия, 361202", "COUNTRY": "Россия", "ADMIN3": "Кабардино-Балкарская Республика", "CITY": "Терский район", "POSTALCODE": "361202", "LAT": 43.48687, "LNG": 44.14462, "ACCESS_LAT": 43.48682, "ACCESS_LNG": 44.14442, "RESULT_TYPE": "houseNumber", "HOUSE_NUMBER_TYPE": "PA", "QUERY_SCORE": 1.0, "CITY_SCORE": null, "STREET_SCORE": 1.0, "HOUSE_NUMBER_SCORE": 1.0, "distances": 198.0 }, "geometry": { "type": "LineString", "coordinates": [ [ 44.146339, 43.485599 ], [ 44.14462, 43.48687 ] ] } },
{ "type": "Feature", "properties": { "ADDRESS": "Тула, ул. Лейтейзена, д. 6", "ORIGINAL_LAT": 54.19556128, "ORIGINAL_LNG": 37.600675, "LABEL": "улица Лейтейзена 6, Тула, Россия, 300041", "COUNTRY": "Россия", "ADMIN3": "Тульская область", "CITY": "Тула", "POSTALCODE": "300041", "LAT": 54.19586, "LNG": 37.60052, "ACCESS_LAT": 54.19584, "ACCESS_LNG": 37.60032, "RESULT_TYPE": "houseNumber", "HOUSE_NUMBER_TYPE": "PA", "QUERY_SCORE": 1.0, "CITY_SCORE": 1.0, "STREET_SCORE": 1.0, "HOUSE_NUMBER_SCORE": 1.0, "distances": 35.0 }, "geometry": { "type": "LineString", "coordinates": [ [ 37.600675, 54.19556128 ], [ 37.60052, 54.19586 ] ] } },
{ "type": "Feature", "properties": { "ADDRESS": "Тула, ул. М. Горького, д. 1", "ORIGINAL_LAT": 54.213014, "ORIGINAL_LNG": 37.624157, "LABEL": "улица Горького 1, Тула, Россия, 301114", "COUNTRY": "Россия", "ADMIN3": "Тульская область", "CITY": "Тула", "POSTALCODE": "301114", "LAT": 54.24749, "LNG": 37.5504, "ACCESS_LAT": 54.2474, "ACCESS_LNG": 37.55024, "RESULT_TYPE": "houseNumber", "HOUSE_NUMBER_TYPE": "PA", "QUERY_SCORE": 0.94, "CITY_SCORE": 1.0, "STREET_SCORE": 1.0, "HOUSE_NUMBER_SCORE": 1.0, "distances": 6153.0 }, "geometry": { "type": "LineString", "coordinates": [ [ 37.624157, 54.213014 ], [ 37.5504, 54.24749 ] ] } },
{ "type": "Feature", "properties": { "ADDRESS": "Углич, ул. Ярославская, д. 32Б", "ORIGINAL_LAT": 57.530592567126227, "ORIGINAL_LNG": 38.3287865, "LABEL": "Ярославская улица 34, Угличский район, Россия", "COUNTRY": "Россия", "ADMIN3": "Ярославская область", "CITY": "Угличский район", "POSTALCODE": null, "LAT": 57.53086, "LNG": 38.32906, "ACCESS_LAT": 57.53096, "ACCESS_LNG": 38.32889, "RESULT_TYPE": "houseNumber", "HOUSE_NUMBER_TYPE": "interpolated", "QUERY_SCORE": 0.94, "CITY_SCORE": null, "STREET_SCORE": 1.0, "HOUSE_NUMBER_SCORE": 0.97, "distances": 34.0 }, "geometry": { "type": "LineString", "coordinates": [ [ 38.328786499999957, 57.530592567126227 ], [ 38.32906, 57.53086 ] ] } },
{ "type": "Feature", "properties": { "ADDRESS": "Удельная, ул. Ярославская, д. 32Б", "ORIGINAL_LAT": 57.530592567126227, "ORIGINAL_LNG": 38.3287865, "LABEL": "Ярославская улица 32Б, Екатеринбург, Россия, 620098", "COUNTRY": "Россия", "ADMIN3": "Свердловская область", "CITY": "Екатеринбург", "POSTALCODE": "620098", "LAT": 56.90954, "LNG": 60.60569, "ACCESS_LAT": 56.9098, "ACCESS_LNG": 60.60562, "RESULT_TYPE": "houseNumber", "HOUSE_NUMBER_TYPE": "PA", "QUERY_SCORE": 0.68, "CITY_SCORE": null, "STREET_SCORE": 1.0, "HOUSE_NUMBER_SCORE": 1.0, "distances": 1341534.0 }, "geometry": { "type": "LineString", "coordinates": [ [ 38.328786499999957, 57.530592567126227 ], [ 60.60569, 56.90954 ] ] } },
{ "type": "Feature", "properties": { "ADDRESS": "Улан-Удэ, ул. Ключевская, д. 76А", "ORIGINAL_LAT": 51.81983, "ORIGINAL_LNG": 107.658434, "LABEL": "Ключевская улица 76А, Улан-Удэ, Россия, 670013", "COUNTRY": "Россия", "ADMIN3": "Республика Бурятия", "CITY": "Улан-Удэ", "POSTALCODE": "670013", "LAT": 51.82037, "LNG": 107.65851, "ACCESS_LAT": 51.82054, "ACCESS_LNG": 107.65817, "RESULT_TYPE": "houseNumber", "HOUSE_NUMBER_TYPE": "PA", "QUERY_SCORE": 1.0, "CITY_SCORE": 1.0, "STREET_SCORE": 1.0, "HOUSE_NUMBER_SCORE": 1.0, "distances": 60.0 }, "geometry": { "type": "LineString", "coordinates": [ [ 107.658434, 51.81983 ], [ 107.65851, 51.82037 ] ] } },
{ "type": "Feature", "properties": { "ADDRESS": "Фрязино, ул. Нахимова, д. 14а", "ORIGINAL_LAT": 55.957695, "ORIGINAL_LNG": 38.031531, "LABEL": "улица Нахимова 14А, Фрязино, Россия, 141191", "COUNTRY": "Россия", "ADMIN3": "Московская область", "CITY": "Фрязино", "POSTALCODE": "141191", "LAT": 55.95809, "LNG": 38.03205, "ACCESS_LAT": 55.9581, "ACCESS_LNG": 38.03171, "RESULT_TYPE": "houseNumber", "HOUSE_NUMBER_TYPE": "PA", "QUERY_SCORE": 1.0, "CITY_SCORE": 1.0, "STREET_SCORE": 1.0, "HOUSE_NUMBER_SCORE": 1.0, "distances": 55.0 }, "geometry": { "type": "LineString", "coordinates": [ [ 38.031531, 55.957695 ], [ 38.03205, 55.95809 ] ] } },
{ "type": "Feature", "properties": { "ADDRESS": "Хасавюрт, ул. Новая 1-й проезд, д. 1Б", "ORIGINAL_LAT": 43.224112884263903, "ORIGINAL_LNG": 46.600876936157931, "LABEL": "1-й проезд 1б, Хасавюрт, Россия, 368006", "COUNTRY": "Россия", "ADMIN3": "Республика Дагестан", "CITY": "Хасавюрт", "POSTALCODE": "368006", "LAT": 43.21335, "LNG": 46.59514, "ACCESS_LAT": 43.21341, "ACCESS_LNG": 46.59531, "RESULT_TYPE": "houseNumber", "HOUSE_NUMBER_TYPE": "interpolated", "QUERY_SCORE": 0.69, "CITY_SCORE": 1.0, "STREET_SCORE": 1.0, "HOUSE_NUMBER_SCORE": 1.0, "distances": 1283.0 }, "geometry": { "type": "LineString", "coordinates": [ [ 46.600876936157931, 43.224112884263903 ], [ 46.59514, 43.21335 ] ] } },
{ "type": "Feature", "properties": { "ADDRESS": "Химки, Куркинское шоссе, д. 17", "ORIGINAL_LAT": 55.88482228, "ORIGINAL_LNG": 37.3924185, "LABEL": "Куркинское шоссе 11, Химки, Россия, 141407", "COUNTRY": "Россия", "ADMIN3": "Московская область", "CITY": "Химки", "POSTALCODE": "141407", "LAT": 55.88373, "LNG": 37.41298, "ACCESS_LAT": 55.88386, "ACCESS_LNG": 37.41302, "RESULT_TYPE": "houseNumber", "HOUSE_NUMBER_TYPE": "interpolated", "QUERY_SCORE": 0.94, "CITY_SCORE": 1.0, "STREET_SCORE": 1.0, "HOUSE_NUMBER_SCORE": 0.94, "distances": 1292.0 }, "geometry": { "type": "LineString", "coordinates": [ [ 37.3924185, 55.88482228 ], [ 37.41298, 55.88373 ] ] } },
{ "type": "Feature", "properties": { "ADDRESS": "Химки, проспект Мельникова, д. 37", "ORIGINAL_LAT": 55.908387778085142, "ORIGINAL_LNG": 37.394978110450687, "LABEL": "проспект Мельникова 37, Химки, Россия, 141407", "COUNTRY": "Россия", "ADMIN3": "Московская область", "CITY": "Химки", "POSTALCODE": "141407", "LAT": 55.90845, "LNG": 37.39481, "ACCESS_LAT": 55.90864, "ACCESS_LNG": 37.39429, "RESULT_TYPE": "houseNumber", "HOUSE_NUMBER_TYPE": "PA", "QUERY_SCORE": 1.0, "CITY_SCORE": 1.0, "STREET_SCORE": 1.0, "HOUSE_NUMBER_SCORE": 1.0, "distances": 13.0 }, "geometry": { "type": "LineString", "coordinates": [ [ 37.394978110450687, 55.908387778085142 ], [ 37.39481, 55.90845 ] ] } },
{ "type": "Feature", "properties": { "ADDRESS": "Химки, Юбилейный проспект, д. 50", "ORIGINAL_LAT": 55.887845, "ORIGINAL_LNG": 37.416633, "LABEL": "Юбилейный проспект 50, Химки, Россия, 141400", "COUNTRY": "Россия", "ADMIN3": "Московская область", "CITY": "Химки", "POSTALCODE": "141400", "LAT": 55.8879, "LNG": 37.4166, "ACCESS_LAT": 55.88758, "ACCESS_LNG": 37.4162, "RESULT_TYPE": "houseNumber", "HOUSE_NUMBER_TYPE": "PA", "QUERY_SCORE": 1.0, "CITY_SCORE": 1.0, "STREET_SCORE": 1.0, "HOUSE_NUMBER_SCORE": 1.0, "distances": 6.0 }, "geometry": { "type": "LineString", "coordinates": [ [ 37.416633, 55.887845 ], [ 37.4166, 55.8879 ] ] } },
{ "type": "Feature", "properties": { "ADDRESS": "Черноголовка, ул. Лесная, д. 9", "ORIGINAL_LAT": 56.013517568713887, "ORIGINAL_LNG": 38.3766845, "LABEL": "Лесная улица 9, Черноголовка, Россия, 142432", "COUNTRY": "Россия", "ADMIN3": "Московская область", "CITY": "Черноголовка", "POSTALCODE": "142432", "LAT": 56.01363, "LNG": 38.37686, "ACCESS_LAT": 56.01348, "ACCESS_LNG": 38.37708, "RESULT_TYPE": "houseNumber", "HOUSE_NUMBER_TYPE": "PA", "QUERY_SCORE": 1.0, "CITY_SCORE": 1.0, "STREET_SCORE": 1.0, "HOUSE_NUMBER_SCORE": 1.0, "distances": 17.0 }, "geometry": { "type": "LineString", "coordinates": [ [ 38.376684499999932, 56.013517568713887 ], [ 38.37686, 56.01363 ] ] } },
{ "type": "Feature", "properties": { "ADDRESS": "Черноморское, ул. Кирова, д. 50Б", "ORIGINAL_LAT": 45.50732757455112, "ORIGINAL_LNG": 32.704677, "LABEL": "Кірова вулиця, 50, Чорноморський район, Україна", "COUNTRY": "Україна", "ADMIN3": "Автономна Республіка Крим", "CITY": "Чорноморський район", "POSTALCODE": null, "LAT": 45.37272, "LNG": 32.53024, "ACCESS_LAT": 45.37265, "ACCESS_LNG": 32.53044, "RESULT_TYPE": "houseNumber", "HOUSE_NUMBER_TYPE": "PA", "QUERY_SCORE": 0.74, "CITY_SCORE": 0.41, "STREET_SCORE": 1.0, "HOUSE_NUMBER_SCORE": 0.99, "distances": 20250.0 }, "geometry": { "type": "LineString", "coordinates": [ [ 32.704677, 45.50732757455112 ], [ 32.53024, 45.37272 ] ] } },
{ "type": "Feature", "properties": { "ADDRESS": "Чехов, ул. Московская, д. 84, корп. 1", "ORIGINAL_LAT": 55.150370569588759, "ORIGINAL_LNG": 37.459927, "LABEL": "Московская улица 84 корп 1, Чеховский район, Россия, 142300", "COUNTRY": "Россия", "ADMIN3": "Московская область", "CITY": "Чеховский район", "POSTALCODE": "142300", "LAT": 55.15036, "LNG": 37.46001, "ACCESS_LAT": 55.15032, "ACCESS_LNG": 37.45959, "RESULT_TYPE": "houseNumber", "HOUSE_NUMBER_TYPE": "PA", "QUERY_SCORE": 1.0, "CITY_SCORE": null, "STREET_SCORE": 1.0, "HOUSE_NUMBER_SCORE": 1.0, "distances": 5.0 }, "geometry": { "type": "LineString", "coordinates": [ [ 37.459927, 55.150370569588759 ], [ 37.46001, 55.15036 ] ] } },
{ "type": "Feature", "properties": { "ADDRESS": "Щелково, 1-ый Советский переулок, д. 19", "ORIGINAL_LAT": 55.919558568830873, "ORIGINAL_LNG": 38.0042075, "LABEL": "1-й Советский переулок 19, Щёлковский район, Россия, 141100", "COUNTRY": "Россия", "ADMIN3": "Московская область", "CITY": "Щёлковский район", "POSTALCODE": "141100", "LAT": 55.91923, "LNG": 38.00373, "ACCESS_LAT": 55.91908, "ACCESS_LNG": 38.00375, "RESULT_TYPE": "houseNumber", "HOUSE_NUMBER_TYPE": "PA", "QUERY_SCORE": 0.97, "CITY_SCORE": null, "STREET_SCORE": 1.0, "HOUSE_NUMBER_SCORE": 1.0, "distances": 47.0 }, "geometry": { "type": "LineString", "coordinates": [ [ 38.004207499999957, 55.919558568830873 ], [ 38.00373, 55.91923 ] ] } },
{ "type": "Feature", "properties": { "ADDRESS": "Щелково, ул. Талсинская, д. 23", "ORIGINAL_LAT": 55.927346, "ORIGINAL_LNG": 37.986007, "LABEL": "Талсинская улица 23, Щёлковский район, Россия, 141109", "COUNTRY": "Россия", "ADMIN3": "Московская область", "CITY": "Щёлковский район", "POSTALCODE": "141109", "LAT": 55.92728, "LNG": 37.98567, "ACCESS_LAT": 55.92749, "ACCESS_LNG": 37.98561, "RESULT_TYPE": "houseNumber", "HOUSE_NUMBER_TYPE": "PA", "QUERY_SCORE": 1.0, "CITY_SCORE": null, "STREET_SCORE": 1.0, "HOUSE_NUMBER_SCORE": 1.0, "distances": 22.0 }, "geometry": { "type": "LineString", "coordinates": [ [ 37.986007, 55.927346 ], [ 37.98567, 55.92728 ] ] } },
{ "type": "Feature", "properties": { "ADDRESS": "Электросталь, ул. Советская, д. 10\/2", "ORIGINAL_LAT": 55.7904264, "ORIGINAL_LNG": 38.436421, "LABEL": "Советская улица 10\/2, Электросталь, Россия, 144000", "COUNTRY": "Россия", "ADMIN3": "Московская область", "CITY": "Электросталь", "POSTALCODE": "144000", "LAT": 55.79033, "LNG": 38.4363, "ACCESS_LAT": 55.79052, "ACCESS_LNG": 38.43614, "RESULT_TYPE": "houseNumber", "HOUSE_NUMBER_TYPE": "PA", "QUERY_SCORE": 1.0, "CITY_SCORE": 1.0, "STREET_SCORE": 1.0, "HOUSE_NUMBER_SCORE": 1.0, "distances": 13.0 }, "geometry": { "type": "LineString", "coordinates": [ [ 38.436421, 55.790426399999987 ], [ 38.4363, 55.79033 ] ] } },
{ "type": "Feature", "properties": { "ADDRESS": "Электросталь, ул. Ялагина, д. 7", "ORIGINAL_LAT": 55.767914, "ORIGINAL_LNG": 38.42885, "LABEL": "улица Ялагина 7, Электросталь, Россия, 144010", "COUNTRY": "Россия", "ADMIN3": "Московская область", "CITY": "Электросталь", "POSTALCODE": "144010", "LAT": 55.76789, "LNG": 38.42888, "ACCESS_LAT": 55.7677, "ACCESS_LNG": 38.42871, "RESULT_TYPE": "houseNumber", "HOUSE_NUMBER_TYPE": "PA", "QUERY_SCORE": 1.0, "CITY_SCORE": 1.0, "STREET_SCORE": 1.0, "HOUSE_NUMBER_SCORE": 1.0, "distances": 3.0 }, "geometry": { "type": "LineString", "coordinates": [ [ 38.42885, 55.767914 ], [ 38.42888, 55.76789 ] ] } },
{ "type": "Feature", "properties": { "ADDRESS": "Электроугли, ул. Школьная, д. 49", "ORIGINAL_LAT": 55.71837478, "ORIGINAL_LNG": 38.2270075, "LABEL": "Школьная улица 49, Ногинский район, Россия, 142455", "COUNTRY": "Россия", "ADMIN3": "Московская область", "CITY": "Ногинский район", "POSTALCODE": "142455", "LAT": 55.7184, "LNG": 38.22698, "ACCESS_LAT": 55.7185, "ACCESS_LNG": 38.22692, "RESULT_TYPE": "houseNumber", "HOUSE_NUMBER_TYPE": "PA", "QUERY_SCORE": 1.0, "CITY_SCORE": null, "STREET_SCORE": 1.0, "HOUSE_NUMBER_SCORE": 1.0, "distances": 3.0 }, "geometry": { "type": "LineString", "coordinates": [ [ 38.2270075, 55.71837478 ], [ 38.22698, 55.7184 ] ] } },
{ "type": "Feature", "properties": { "ADDRESS": "Якутск, ул. Ломоносова, д. 45", "ORIGINAL_LAT": 62.028217, "ORIGINAL_LNG": 129.71811, "LABEL": "улица Ломоносова 45, Якутск, Россия, 677000", "COUNTRY": "Россия", "ADMIN3": "Республика Саха (Якутия)", "CITY": "Якутск", "POSTALCODE": "677000", "LAT": 62.02879, "LNG": 129.71882, "ACCESS_LAT": 62.02898, "ACCESS_LNG": 129.71926, "RESULT_TYPE": "houseNumber", "HOUSE_NUMBER_TYPE": "PA", "QUERY_SCORE": 1.0, "CITY_SCORE": 1.0, "STREET_SCORE": 1.0, "HOUSE_NUMBER_SCORE": 1.0, "distances": 74.0 }, "geometry": { "type": "LineString", "coordinates": [ [ 129.71811, 62.028217 ], [ 129.71882, 62.02879 ] ] } },
{ "type": "Feature", "properties": { "ADDRESS": "Ялта,  переулок Новый, д. 2а", "ORIGINAL_LAT": 44.491569993618988, "ORIGINAL_LNG": 34.153613902446715, "LABEL": "Новый переулок 2А, Новоусманский район, Россия, 396310", "COUNTRY": "Россия", "ADMIN3": "Воронежская область", "CITY": "Новоусманский район", "POSTALCODE": "396310", "LAT": 51.61125, "LNG": 39.3924, "ACCESS_LAT": 51.61174, "ACCESS_LNG": 39.39287, "RESULT_TYPE": "houseNumber", "HOUSE_NUMBER_TYPE": "PA", "QUERY_SCORE": 0.8, "CITY_SCORE": null, "STREET_SCORE": 1.0, "HOUSE_NUMBER_SCORE": 1.0, "distances": 882186.0 }, "geometry": { "type": "LineString", "coordinates": [ [ 34.153613902446715, 44.491569993618988 ], [ 39.3924, 51.61125 ] ] } }
]
}
